city,city_ascii,lat,lng,country,iso2,iso3,admin_name,capital,population,id,city_ascii_lower
São Paulo,Sao Paulo,-23.55,-46.6333,Brazil,BR,BRA,São Paulo,admin,23086000.0,1076532519,sao paulo
Rio de Janeiro,Rio De Janeiro,-22.9111,-43.2056,Brazil,BR,BRA,Rio de Janeiro,admin,12592000.0,1076887657,rio de janeiro
Belo Horizonte,Belo Horizonte,-19.9167,-43.9333,Brazil,BR,BRA,Minas Gerais,admin,5328000.0,1076967355,belo horizonte
Brasília,Brasilia,-15.7939,-47.8828,Brazil,BR,BRA,Distrito Federal,primary,3039444.0,1076144436,brasilia
Salvador,Salvador,-12.9747,-38.4767,Brazil,BR,BRA,Bahia,admin,2886698.0,1076923789,salvador
Fortaleza,Fortaleza,-3.7275,-38.5275,Brazil,BR,BRA,Ceará,admin,2452185.0,1076567885,fortaleza
Manaus,Manaus,-3.1,-60.0167,Brazil,BR,BRA,Amazonas,admin,2219580.0,1076607274,manaus
Santos,Santos,-23.9369,-46.325,Brazil,BR,BRA,São Paulo,,1897551.0,1076033299,santos
Curitiba,Curitiba,-25.4297,-49.2711,Brazil,BR,BRA,Paraná,admin,1879355.0,1076701712,curitiba
Recife,Recife,-8.05,-34.9,Brazil,BR,BRA,Pernambuco,admin,1653461.0,1076137337,recife
Belém,Belem,-1.4558,-48.5039,Brazil,BR,BRA,Pará,admin,1499641.0,1076646823,belem
Porto Alegre,Porto Alegre,-30.0331,-51.23,Brazil,BR,BRA,Rio Grande do Sul,admin,1484941.0,1076658221,porto alegre
Goiânia,Goiania,-16.6667,-49.25,Brazil,BR,BRA,Goiás,admin,1393575.0,1076034054,goiania
Guarulhos,Guarulhos,-23.4628,-46.5328,Brazil,BR,BRA,São Paulo,,1324781.0,1076730420,guarulhos
Campinas,Campinas,-22.9058,-47.0608,Brazil,BR,BRA,São Paulo,,1213792.0,1076145766,campinas
Vila Velha,Vila Velha,3.2167,-51.2167,Brazil,BR,BRA,Amapá,,1209091.0,1076575691,vila velha
São Luís,Sao Luis,-2.5283,-44.3044,Brazil,BR,BRA,Maranhão,admin,1108975.0,1076819308,sao luis
São Gonçalo,Sao Goncalo,-22.8269,-43.0539,Brazil,BR,BRA,Rio de Janeiro,,1077687.0,1076485783,sao goncalo
Maceió,Maceio,-9.6658,-35.735,Brazil,BR,BRA,Alagoas,admin,1025360.0,1076440479,maceio
Natal,Natal,-6.9838,-60.2699,Brazil,BR,BRA,Amazonas,,980588.0,1076336975,natal
Teresina,Teresina,-5.0949,-42.8042,Brazil,BR,BRA,Piauí,admin,953172.0,1076727667,teresina
Campo Grande,Campo Grande,-20.4839,-54.615,Brazil,BR,BRA,Mato Grosso do Sul,admin,906092.0,1076660445,campo grande
Iguaçu,Iguacu,-22.74,-43.47,Brazil,BR,BRA,Rio de Janeiro,,844583.0,1076339714,iguacu
São Bernardo do Campo,Sao Bernardo Do Campo,-23.7,-46.55,Brazil,BR,BRA,São Paulo,,816925.0,1076793227,sao bernardo do campo
João Pessoa,Joao Pessoa,-7.12,-34.88,Brazil,BR,BRA,Paraíba,admin,801718.0,1076922014,joao pessoa
Abaeté,Abaete,-19.1583,-45.4522,Brazil,BR,BRA,Minas Gerais,,800000.0,1076413528,abaete
São José dos Campos,Sao Jose Dos Campos,-23.1789,-45.8869,Brazil,BR,BRA,São Paulo,,729737.0,1076783887,sao jose dos campos
Santo André,Santo Andre,-23.6572,-46.5333,Brazil,BR,BRA,São Paulo,,721368.0,1076625886,santo andre
Jaboatão,Jaboatao,-8.1803,-35.0014,Brazil,BR,BRA,Pernambuco,,702621.0,1076000699,jaboatao
Ribeirão Prêto,Ribeirao Preto,-21.1783,-47.8067,Brazil,BR,BRA,São Paulo,,711825.0,1076524478,ribeirao preto
Osasco,Osasco,-23.5328,-46.7919,Brazil,BR,BRA,São Paulo,,694844.0,1076786452,osasco
Contagem,Contagem,-19.9319,-44.0539,Brazil,BR,BRA,Minas Gerais,,648766.0,1076845191,contagem
Sorocaba,Sorocaba,-23.5017,-47.4581,Brazil,BR,BRA,São Paulo,,644919.0,1076758708,sorocaba
Aracaju,Aracaju,-10.9167,-37.05,Brazil,BR,BRA,Sergipe,admin,632744.0,1076527830,aracaju
Feira de Santana,Feira De Santana,-12.25,-38.95,Brazil,BR,BRA,Bahia,,617528.0,1076892244,feira de santana
Uberlândia,Uberlandia,-18.9231,-48.2886,Brazil,BR,BRA,Minas Gerais,,604013.0,1076495001,uberlandia
Cuiabá,Cuiaba,-15.5958,-56.0969,Brazil,BR,BRA,Mato Grosso,admin,585367.0,1076112309,cuiaba
Juiz de Fora,Juiz De Fora,-21.7619,-43.3494,Brazil,BR,BRA,Minas Gerais,,573285.0,1076006144,juiz de fora
Londrina,Londrina,-23.31,-51.1628,Brazil,BR,BRA,Paraná,,548249.0,1076723241,londrina
Ananindeua,Ananindeua,-1.3658,-48.3719,Brazil,BR,BRA,Pará,,540410.0,1076025295,ananindeua
Joinvile,Joinvile,-26.3204,-48.8437,Brazil,BR,BRA,Santa Catarina,,515288.0,1076050637,joinvile
Macapá,Macapa,0.033,-51.0653,Brazil,BR,BRA,Amapá,admin,512902.0,1076189884,macapa
Niterói,Niteroi,-22.8833,-43.1036,Brazil,BR,BRA,Rio de Janeiro,,496696.0,1076501425,niteroi
Serra,Serra,-20.1289,-40.3078,Brazil,BR,BRA,Espírito Santo,,485376.0,1076191325,serra
Florianópolis,Florianopolis,-27.6122,-48.4853,Brazil,BR,BRA,Santa Catarina,admin,477798.0,1076190259,florianopolis
São José do Rio Prêto,Sao Jose Do Rio Preto,-20.8081,-49.3811,Brazil,BR,BRA,São Paulo,,469173.0,1076760827,sao jose do rio preto
Campos,Campos,-21.7539,-41.3239,Brazil,BR,BRA,Rio de Janeiro,,463731.0,1076606365,campos
Mauá,Maua,-23.6678,-46.4608,Brazil,BR,BRA,São Paulo,,453286.0,1076477498,maua
Mogi das Cruzes,Mogi Das Cruzes,-23.5228,-46.1878,Brazil,BR,BRA,São Paulo,,450785.0,1076857883,mogi das cruzes
Diadema,Diadema,-23.6861,-46.6106,Brazil,BR,BRA,São Paulo,,426757.0,1076867279,diadema
Caxias do Sul,Caxias Do Sul,-29.1667,-51.1833,Brazil,BR,BRA,Rio Grande do Sul,,435564.0,1076809957,caxias do sul
Porto Velho,Porto Velho,-8.7619,-63.9039,Brazil,BR,BRA,Rondônia,admin,428527.0,1076045591,porto velho
Boa Vista,Boa Vista,2.8194,-60.6714,Brazil,BR,BRA,Roraima,admin,419652.0,1076621300,boa vista
Carapicuíba,Carapicuiba,-23.5192,-46.8358,Brazil,BR,BRA,São Paulo,,403183.0,1076874103,carapicuiba
Rio Branco,Rio Branco,-9.9747,-67.81,Brazil,BR,BRA,Acre,admin,413418.0,1076391263,rio branco
Campina Grande,Campina Grande,-7.2306,-35.8811,Brazil,BR,BRA,Paraíba,,405072.0,1076218697,campina grande
Maringá,Maringa,-23.4,-51.9167,Brazil,BR,BRA,Paraná,,403063.0,1076013378,maringa
Jundiaí,Jundiai,-23.1858,-46.8839,Brazil,BR,BRA,São Paulo,,401896.0,1076998392,jundiai
Olinda,Olinda,-8.0,-34.8833,Brazil,BR,BRA,Pernambuco,,393115.0,1076784718,olinda
Piracicaba,Piracicaba,-22.7253,-47.6492,Brazil,BR,BRA,São Paulo,,391449.0,1076166252,piracicaba
Betim,Betim,-19.9678,-44.1978,Brazil,BR,BRA,Minas Gerais,,378089.0,1076953384,betim
Caucaia,Caucaia,-3.7167,-38.65,Brazil,BR,BRA,Ceará,,368918.0,1076870058,caucaia
Bauru,Bauru,-22.315,-49.0608,Brazil,BR,BRA,São Paulo,,366992.0,1076905338,bauru
Anápolis,Anapolis,-16.3339,-48.9519,Brazil,BR,BRA,Goiás,,366491.0,1076208869,anapolis
Blumenau,Blumenau,-26.9333,-49.05,Brazil,BR,BRA,Santa Catarina,,361855.0,1076618665,blumenau
Montes Claros,Montes Claros,-16.7306,-43.8639,Brazil,BR,BRA,Minas Gerais,,361915.0,1076113275,montes claros
Vitória,Vitoria,-20.2889,-40.3083,Brazil,BR,BRA,Espírito Santo,admin,355875.0,1076376829,vitoria
Franca,Franca,-20.5389,-47.4008,Brazil,BR,BRA,São Paulo,,358539.0,1076740256,franca
São Vicente,Sao Vicente,-23.9633,-46.3922,Brazil,BR,BRA,São Paulo,,355542.0,1076857089,sao vicente
Itaquaquecetuba,Itaquaquecetuba,-23.4864,-46.3486,Brazil,BR,BRA,São Paulo,,352801.0,1076942224,itaquaquecetuba
Cariacica,Cariacica,-20.2639,-40.42,Brazil,BR,BRA,Espírito Santo,,348738.0,1076479479,cariacica
Caruaru,Caruaru,-8.2828,-35.9758,Brazil,BR,BRA,Pernambuco,,347088.0,1076397475,caruaru
Vitória da Conquista,Vitoria Da Conquista,-14.8658,-40.8389,Brazil,BR,BRA,Bahia,,343230.0,1076812020,vitoria da conquista
Petrolina,Petrolina,-9.3928,-40.5078,Brazil,BR,BRA,Pernambuco,,337683.0,1076843988,petrolina
Uberaba,Uberaba,-19.7478,-47.9319,Brazil,BR,BRA,Minas Gerais,,333783.0,1076230331,uberaba
Ribeirão das Neves,Ribeirao Das Neves,-19.7669,-44.0869,Brazil,BR,BRA,Minas Gerais,,331045.0,1076482220,ribeirao das neves
Pelotas,Pelotas,-31.7719,-52.3425,Brazil,BR,BRA,Rio Grande do Sul,,328275.0,1076815692,pelotas
Canoas,Canoas,-29.92,-51.18,Brazil,BR,BRA,Rio Grande do Sul,,323827.0,1076009922,canoas
Taubaté,Taubate,-23.025,-45.5556,Brazil,BR,BRA,São Paulo,,317915.0,1076146252,taubate
Guarujá,Guaruja,-23.9936,-46.2564,Brazil,BR,BRA,São Paulo,,311230.0,1076832747,guaruja
Ponta Grossa,Ponta Grossa,-25.0994,-50.1583,Brazil,BR,BRA,Paraná,,311611.0,1076716439,ponta grossa
Taboão da Serra,Taboao Da Serra,-23.5328,-46.7994,Brazil,BR,BRA,São Paulo,,293652.0,1076000585,taboao da serra
Santarém,Santarem,-2.43,-54.72,Brazil,BR,BRA,Pará,,306480.0,1076256494,santarem
Paulista,Paulista,-7.9408,-34.8728,Brazil,BR,BRA,Pernambuco,,300466.0,1076183876,paulista
Limeira,Limeira,-22.565,-47.4019,Brazil,BR,BRA,São Paulo,,300911.0,1076508566,limeira
Praia Grande,Praia Grande,-24.0061,-46.4028,Brazil,BR,BRA,São Paulo,,299261.0,1076548222,praia grande
Petrópolis,Petropolis,-22.505,-43.1789,Brazil,BR,BRA,Rio de Janeiro,,298142.0,1076352504,petropolis
Várzea Grande,Varzea Grande,-15.65,-56.1333,Brazil,BR,BRA,Mato Grosso,,287526.0,1076359879,varzea grande
Camaçari,Camacari,-12.6978,-38.3239,Brazil,BR,BRA,Bahia,,286919.0,1076610862,camacari
Suzano,Suzano,-23.5428,-46.3108,Brazil,BR,BRA,São Paulo,,285280.0,1076830201,suzano
Cascavel,Cascavel,-24.9556,-53.4553,Brazil,BR,BRA,Paraná,,286205.0,1076509946,cascavel
Governador Valadares,Governador Valadares,-18.85,-41.9333,Brazil,BR,BRA,Minas Gerais,,281046.0,1076271003,governador valadares
Crato,Crato,-7.4639,-63.04,Brazil,BR,BRA,Amazonas,,273883.0,1076425706,crato
Volta Redonda,Volta Redonda,-22.5228,-44.1039,Brazil,BR,BRA,Rio de Janeiro,,273988.0,1076343513,volta redonda
Palmas,Palmas,-10.1844,-48.3336,Brazil,BR,BRA,Tocantins,admin,272726.0,1076052802,palmas
Sumaré,Sumare,-22.8219,-47.2669,Brazil,BR,BRA,São Paulo,,265955.0,1076684312,sumare
Marabá,Maraba,-5.35,-49.1167,Brazil,BR,BRA,Pará,,266932.0,1076974144,maraba
Barueri,Barueri,-23.5111,-46.8764,Brazil,BR,BRA,São Paulo,,262275.0,1076211114,barueri
São José dos Pinhais,Sao Jose Dos Pinhais,-25.535,-49.2058,Brazil,BR,BRA,Paraná,,264210.0,1076174955,sao jose dos pinhais
Mossoró,Mossoro,-5.1878,-37.3439,Brazil,BR,BRA,Rio Grande do Norte,,259815.0,1076461194,mossoro
Indaiatuba,Indaiatuba,-23.0903,-47.2181,Brazil,BR,BRA,São Paulo,,256223.0,1076347789,indaiatuba
Foz do Iguaçu,Foz Do Iguacu,-25.54,-54.5875,Brazil,BR,BRA,Paraná,,256088.0,1076025805,foz do iguacu
Gravataí,Gravatai,-29.9333,-50.9833,Brazil,BR,BRA,Rio Grande do Sul,,255660.0,1076919841,gravatai
São Carlos,Sao Carlos,-22.0,-47.8908,Brazil,BR,BRA,São Paulo,,254484.0,1076673445,sao carlos
São José,Sao Jose,-27.6,-48.6167,Brazil,BR,BRA,Santa Catarina,,250181.0,1076689151,sao jose
Juazeiro do Norte,Juazeiro Do Norte,-7.2,-39.3333,Brazil,BR,BRA,Ceará,,249939.0,1076912078,juazeiro do norte
Imperatriz,Imperatriz,-5.5333,-47.4833,Brazil,BR,BRA,Maranhão,,247505.0,1076486025,imperatriz
Americana,Americana,-22.7386,-47.3311,Brazil,BR,BRA,São Paulo,,244270.0,1076922153,americana
Santa Maria,Santa Maria,-29.6833,-53.8,Brazil,BR,BRA,Rio Grande do Sul,,243611.0,1076178738,santa maria
Ipatinga,Ipatinga,-19.5,-42.5333,Brazil,BR,BRA,Minas Gerais,,239468.0,1076484921,ipatinga
Marília,Marilia,-22.2139,-49.9458,Brazil,BR,BRA,São Paulo,,240590.0,1076042151,marilia
Novo Hamburgo,Novo Hamburgo,-29.6778,-51.1308,Brazil,BR,BRA,Rio Grande do Sul,,238940.0,1076221386,novo hamburgo
Viamão,Viamao,-30.0808,-51.0228,Brazil,BR,BRA,Rio Grande do Sul,,239384.0,1076314777,viamao
Jacareí,Jacarei,-23.3053,-45.9658,Brazil,BR,BRA,São Paulo,,235416.0,1076592769,jacarei
Macaé,Macae,-22.3708,-41.7869,Brazil,BR,BRA,Rio de Janeiro,,234628.0,1076074287,macae
Arapiraca,Arapiraca,-9.7519,-36.6608,Brazil,BR,BRA,Alagoas,,233047.0,1076615737,arapiraca
Cotia,Cotia,-23.6042,-46.9194,Brazil,BR,BRA,São Paulo,,229548.0,1076098590,cotia
Rondonópolis,Rondonopolis,-16.4667,-54.6333,Brazil,BR,BRA,Mato Grosso,,228857.0,1076627175,rondonopolis
Magé,Mage,-22.6528,-43.0408,Brazil,BR,BRA,Rio de Janeiro,,227322.0,1076385139,mage
Araraquara,Araraquara,-21.7939,-48.1758,Brazil,BR,BRA,São Paulo,,226508.0,1076251019,araraquara
Itapevi,Itapevi,-23.5489,-46.9342,Brazil,BR,BRA,São Paulo,,223404.0,1076008789,itapevi
Chapecó,Chapeco,-27.0958,-52.6178,Brazil,BR,BRA,Santa Catarina,,224013.0,1076258255,chapeco
Presidente Prudente,Presidente Prudente,-22.1256,-51.3889,Brazil,BR,BRA,São Paulo,,222192.0,1076239965,presidente prudente
Santa Luzia,Santa Luzia,-19.77,-43.8506,Brazil,BR,BRA,Minas Gerais,,220444.0,1076123204,santa luzia
Juazeiro,Juazeiro,-9.4306,-40.5028,Brazil,BR,BRA,Bahia,,220253.0,1076632040,juazeiro
Itabuna,Itabuna,-14.7858,-39.28,Brazil,BR,BRA,Bahia,,219680.0,1076003792,itabuna
Hortolândia,Hortolandia,-22.8583,-47.22,Brazil,BR,BRA,São Paulo,,215819.0,1076591779,hortolandia
Itaboraí,Itaborai,-22.7439,-42.8589,Brazil,BR,BRA,Rio de Janeiro,,218008.0,1076964860,itaborai
São Leopoldo,Sao Leopoldo,-29.76,-51.1469,Brazil,BR,BRA,Rio Grande do Sul,,214087.0,1076834293,sao leopoldo
Sete Lagoas,Sete Lagoas,-19.4658,-44.2469,Brazil,BR,BRA,Minas Gerais,,214152.0,1076863850,sete lagoas
Divinópolis,Divinopolis,-20.1389,-44.8839,Brazil,BR,BRA,Minas Gerais,,213016.0,1076716552,divinopolis
Colombo,Colombo,-25.2919,-49.2239,Brazil,BR,BRA,Paraná,,212967.0,1076976439,colombo
Criciúma,Criciuma,-28.6775,-49.3697,Brazil,BR,BRA,Santa Catarina,,211369.0,1076000206,criciuma
Maracanaú,Maracanau,-3.8667,-38.6333,Brazil,BR,BRA,Ceará,,209057.0,1076848743,maracanau
Santo Agostinho,Santo Agostinho,-8.2897,-35.03,Brazil,BR,BRA,Pernambuco,,208944.0,1076363089,santo agostinho
Passo Fundo,Passo Fundo,-28.25,-52.4,Brazil,BR,BRA,Rio Grande do Sul,,204722.0,1076763340,passo fundo
Parnamirim,Parnamirim,-5.9167,-35.25,Brazil,BR,BRA,Rio Grande do Norte,,202456.0,1076600360,parnamirim
Rio Claro,Rio Claro,-22.4108,-47.5608,Brazil,BR,BRA,São Paulo,,199961.0,1076411428,rio claro
Alvorada,Alvorada,-29.9897,-51.0833,Brazil,BR,BRA,Rio Grande do Sul,,195673.0,1076999998,alvorada
Araçatuba,Aracatuba,-21.2089,-50.4328,Brazil,BR,BRA,São Paulo,,198129.0,1076630308,aracatuba
Rio Grande,Rio Grande,-32.035,-52.0986,Brazil,BR,BRA,Rio Grande do Sul,,197228.0,1076567920,rio grande
Castanhal,Castanhal,-1.2969,-47.9219,Brazil,BR,BRA,Pará,,192571.0,1076216938,castanhal
Ferraz de Vasconcelos,Ferraz De Vasconcelos,-23.5411,-46.3689,Brazil,BR,BRA,São Paulo,,184700.0,1076173995,ferraz de vasconcelos
Santa Bárbara d’Oeste,Santa Barbara D'Oeste,-22.7544,-47.4142,Brazil,BR,BRA,São Paulo,,190139.0,1076199404,santa barbara d'oeste
Cachoeiro de Itapemirim,Cachoeiro De Itapemirim,-20.8489,-41.1128,Brazil,BR,BRA,Espírito Santo,,189889.0,1076536175,cachoeiro de itapemirim
Angra dos Reis,Angra Dos Reis,-23.0067,-44.3181,Brazil,BR,BRA,Rio de Janeiro,,188276.0,1076039737,angra dos reis
Sobral,Sobral,-3.6739,-40.2389,Brazil,BR,BRA,Ceará,,188233.0,1076577102,sobral
Cabo Frio,Cabo Frio,-22.8789,-42.0189,Brazil,BR,BRA,Rio de Janeiro,,186227.0,1076449553,cabo frio
Nossa Senhora do Socorro,Nossa Senhora Do Socorro,-10.855,-37.0592,Brazil,BR,BRA,Sergipe,,185706.0,1076881156,nossa senhora do socorro
Itajaí,Itajai,-26.9,-48.6667,Brazil,BR,BRA,Santa Catarina,,183373.0,1076348188,itajai
Dourados,Dourados,-22.2208,-54.8058,Brazil,BR,BRA,Mato Grosso do Sul,,182747.0,1076544482,dourados
Nova Friburgo,Nova Friburgo,-22.2819,-42.5311,Brazil,BR,BRA,Rio de Janeiro,,182082.0,1076922983,nova friburgo
Ilhéus,Ilheus,-14.7889,-39.0489,Brazil,BR,BRA,Bahia,,180213.0,1076021121,ilheus
Barra Mansa,Barra Mansa,-22.5439,-44.1708,Brazil,BR,BRA,Rio de Janeiro,,179915.0,1076686083,barra mansa
Linhares,Linhares,-19.3894,-40.0678,Brazil,BR,BRA,Espírito Santo,,176688.0,1076355611,linhares
Rio Verde,Rio Verde,-17.745,-50.9167,Brazil,BR,BRA,Goiás,,176424.0,1076844683,rio verde
Luziânia,Luziania,-16.2528,-47.95,Brazil,BR,BRA,Goiás,,174531.0,1076073549,luziania
São Caetano do Sul,Sao Caetano Do Sul,-23.7,-46.55,Brazil,BR,BRA,São Paulo,,161957.0,1076527920,sao caetano do sul
Francisco Morato,Francisco Morato,-23.2817,-46.7425,Brazil,BR,BRA,São Paulo,,168243.0,1076808330,francisco morato
Itapecerica da Serra,Itapecerica Da Serra,-23.7172,-46.8494,Brazil,BR,BRA,São Paulo,,167236.0,1076163359,itapecerica da serra
Guarapuava,Guarapuava,-25.3833,-51.45,Brazil,BR,BRA,Paraná,,167328.0,1076415327,guarapuava
Itu,Itu,-23.2642,-47.2992,Brazil,BR,BRA,São Paulo,,167095.0,1076622789,itu
Teresópolis,Teresopolis,-22.4119,-42.9658,Brazil,BR,BRA,Rio de Janeiro,,163746.0,1076000296,teresopolis
São José de Ribamar,Sao Jose De Ribamar,-2.55,-44.05,Brazil,BR,BRA,Maranhão,,163045.0,1076976057,sao jose de ribamar
Jequié,Jequie,-13.863,-40.0843,Brazil,BR,BRA,Bahia,,161528.0,1076558785,jequie
Ibirité,Ibirite,-20.0219,-44.0589,Brazil,BR,BRA,Minas Gerais,,158954.0,1076368194,ibirite
Bragança Paulista,Braganca Paulista,-22.9531,-46.5422,Brazil,BR,BRA,São Paulo,,160665.0,1076245528,braganca paulista
Pindamonhangaba,Pindamonhangaba,-22.9239,-45.4617,Brazil,BR,BRA,São Paulo,,160614.0,1076937468,pindamonhangaba
Teixeira de Freitas,Teixeira De Freitas,-17.5403,-39.7437,Brazil,BR,BRA,Bahia,,157804.0,1076918835,teixeira de freitas
Camarajibe,Camarajibe,-8.0219,-34.9808,Brazil,BR,BRA,Pernambuco,,155054.0,1076738662,camarajibe
Itapetininga,Itapetininga,-23.5917,-48.0531,Brazil,BR,BRA,São Paulo,,157016.0,1076425970,itapetininga
Lajes,Lajes,-27.8158,-50.3258,Brazil,BR,BRA,Santa Catarina,,156727.0,1076517475,lajes
Timon,Timon,-5.0939,-42.8369,Brazil,BR,BRA,Maranhão,,155460.0,1076758286,timon
Caxias,Caxias,-4.8589,-43.3558,Brazil,BR,BRA,Maranhão,,155129.0,1076325693,caxias
Alagoinhas,Alagoinhas,-12.1358,-38.4189,Brazil,BR,BRA,Bahia,,154495.0,1076155953,alagoinhas
Barreiras,Barreiras,-12.1483,-44.9925,Brazil,BR,BRA,Bahia,,153918.0,1076854674,barreiras
Poços de Caldas,Pocos De Caldas,-21.7878,-46.5608,Brazil,BR,BRA,Minas Gerais,,152435.0,1076336113,pocos de caldas
Abaetetuba,Abaetetuba,-1.7178,-48.8828,Brazil,BR,BRA,Pará,,151934.0,1076974632,abaetetuba
Patos de Minas,Patos De Minas,-18.5817,-46.5147,Brazil,BR,BRA,Minas Gerais,,150833.0,1076100026,patos de minas
Pôrto Seguro,Porto Seguro,-16.4333,-39.0833,Brazil,BR,BRA,Bahia,,150658.0,1076932180,porto seguro
Araguaína,Araguaina,-7.1908,-48.2069,Brazil,BR,BRA,Tocantins,,150484.0,1076632868,araguaina
Mogi Guaçu,Mogi Guacu,-22.3719,-46.9419,Brazil,BR,BRA,São Paulo,,147233.0,1076749992,mogi guacu
Franco da Rocha,Franco Da Rocha,-23.3286,-46.7244,Brazil,BR,BRA,São Paulo,,145755.0,1076071582,franco da rocha
Parnaíba,Parnaiba,-2.905,-41.7769,Brazil,BR,BRA,Piauí,,145705.0,1076568871,parnaiba
Jaú,Jau,-22.2958,-48.5578,Brazil,BR,BRA,São Paulo,,143283.0,1076312559,jau
Jaraguá do Sul,Jaragua Do Sul,-26.4833,-49.0667,Brazil,BR,BRA,Santa Catarina,,143123.0,1076588128,jaragua do sul
Rio das Ostras,Rio Das Ostras,-22.5269,-41.945,Brazil,BR,BRA,Rio de Janeiro,,141117.0,1076148122,rio das ostras
Paranaguá,Paranagua,-25.5208,-48.5094,Brazil,BR,BRA,Paraná,,140469.0,1076265266,paranagua
Botucatu,Botucatu,-22.8858,-48.445,Brazil,BR,BRA,São Paulo,,139483.0,1076113865,botucatu
Brusque,Brusque,-27.0949,-48.9148,Brazil,BR,BRA,Santa Catarina,,137689.0,1076418225,brusque
Palhoça,Palhoca,-27.6444,-48.6678,Brazil,BR,BRA,Santa Catarina,,137334.0,1076000559,palhoca
Atibaia,Atibaia,-23.1172,-46.5506,Brazil,BR,BRA,São Paulo,,137187.0,1076042485,atibaia
Garanhuns,Garanhuns,-8.8903,-36.4928,Brazil,BR,BRA,Pernambuco,,136949.0,1076673653,garanhuns
Santa Rita,Santa Rita,-7.1139,-34.9778,Brazil,BR,BRA,Paraíba,,134940.0,1076661082,santa rita
Teófilo Otoni,Teofilo Otoni,-17.8578,-41.505,Brazil,BR,BRA,Minas Gerais,,134745.0,1076465745,teofilo otoni
Marituba,Marituba,-10.2833,-36.4,Brazil,BR,BRA,Alagoas,,133685.0,1076858443,marituba
Jandira,Jandira,-23.5278,-46.9028,Brazil,BR,BRA,São Paulo,,126356.0,1076873964,jandira
Sinop,Sinop,-11.8481,-55.6492,Brazil,BR,BRA,Mato Grosso,,132934.0,1076876295,sinop
Cametá,Cameta,-2.2439,-49.4958,Brazil,BR,BRA,Pará,,132515.0,1076010069,cameta
Cubatão,Cubatao,-23.8953,-46.4256,Brazil,BR,BRA,São Paulo,,131626.0,1076384228,cubatao
Ji-Paraná,Ji-Parana,-10.8853,-61.9517,Brazil,BR,BRA,Rondônia,,131560.0,1076313540,ji-parana
Pouso Alegre,Pouso Alegre,-22.2281,-45.9336,Brazil,BR,BRA,Minas Gerais,,130615.0,1076082333,pouso alegre
Vitória de Santo Antão,Vitoria De Santo Antao,-8.1264,-35.3075,Brazil,BR,BRA,Pernambuco,,129974.0,1076843224,vitoria de santo antao
Araras,Araras,-22.3572,-47.3844,Brazil,BR,BRA,São Paulo,,128895.0,1076656148,araras
Maricá,Marica,-22.9189,-42.8189,Brazil,BR,BRA,Rio de Janeiro,,127461.0,1076927018,marica
Balneário de Camboriú,Balneario De Camboriu,-26.9953,-48.6356,Brazil,BR,BRA,Santa Catarina,,124557.0,1076385564,balneario de camboriu
Santana de Parnaíba,Santana De Parnaiba,-23.4439,-46.9178,Brazil,BR,BRA,São Paulo,,126574.0,1076401391,santana de parnaiba
Sabará,Sabara,-19.8858,-43.8069,Brazil,BR,BRA,Minas Gerais,,126269.0,1076006379,sabara
Barbacena,Barbacena,-21.2167,-43.7667,Brazil,BR,BRA,Minas Gerais,,126284.0,1076877003,barbacena
Uruguaiana,Uruguaiana,-29.755,-57.0878,Brazil,BR,BRA,Rio Grande do Sul,,125435.0,1076680267,uruguaiana
Resende,Resende,-22.4689,-44.4469,Brazil,BR,BRA,Rio de Janeiro,,125214.0,1076678781,resende
Varginha,Varginha,-21.5517,-45.43,Brazil,BR,BRA,Minas Gerais,,123081.0,1076731794,varginha
Santana,Santana,-0.035,-51.175,Brazil,BR,BRA,Amapá,,123096.0,1076974952,santana
Itatiba,Itatiba,-23.0058,-46.8389,Brazil,BR,BRA,São Paulo,,122581.0,1076747401,itatiba
Bragança,Braganca,-1.0628,-46.7728,Brazil,BR,BRA,Pará,,122881.0,1076855072,braganca
Barretos,Barretos,-20.5569,-48.5678,Brazil,BR,BRA,São Paulo,,122833.0,1076042195,barretos
Bento Gonçalves,Bento Goncalves,-29.1708,-51.5189,Brazil,BR,BRA,Rio Grande do Sul,,121803.0,1076492877,bento goncalves
Guarapari,Guarapari,-20.65,-40.5,Brazil,BR,BRA,Espírito Santo,,121506.0,1076076726,guarapari
Ribeirão Pires,Ribeirao Pires,-23.7153,-46.4194,Brazil,BR,BRA,São Paulo,,120396.0,1076050419,ribeirao pires
Apucarana,Apucarana,-23.5508,-51.4608,Brazil,BR,BRA,Paraná,,120919.0,1076256387,apucarana
Valinhos,Valinhos,-22.9706,-46.9958,Brazil,BR,BRA,São Paulo,minor,120258.0,1076809155,valinhos
Cachoeirinha,Cachoeirinha,-29.9508,-51.0939,Brazil,BR,BRA,Rio Grande do Sul,,118278.0,1076573967,cachoeirinha
Sertãozinho,Sertaozinho,-21.1381,-47.9906,Brazil,BR,BRA,São Paulo,,120152.0,1076989194,sertaozinho
Poá,Poa,-23.5286,-46.345,Brazil,BR,BRA,São Paulo,,113793.0,1076905631,poa
Várzea Paulista,Varzea Paulista,-23.2114,-46.8283,Brazil,BR,BRA,São Paulo,,116601.0,1076046083,varzea paulista
Catanduva,Catanduva,-21.1378,-48.9728,Brazil,BR,BRA,São Paulo,,119480.0,1076772178,catanduva
Toledo,Toledo,-24.7139,-53.7428,Brazil,BR,BRA,Paraná,,119313.0,1076312600,toledo
Araucária,Araucaria,-25.5928,-49.41,Brazil,BR,BRA,Paraná,,119123.0,1076784908,araucaria
Paulo Afonso,Paulo Afonso,-9.4,-38.225,Brazil,BR,BRA,Bahia,,119214.0,1076084498,paulo afonso
Guaratinguetá,Guaratingueta,-22.8167,-45.2278,Brazil,BR,BRA,São Paulo,,119073.0,1076125544,guaratingueta
Barcarena Nova,Barcarena Nova,-1.5058,-48.6258,Brazil,BR,BRA,Pará,,118537.0,1076791102,barcarena nova
Birigui,Birigui,-21.2886,-50.34,Brazil,BR,BRA,São Paulo,,118352.0,1076546798,birigui
Santa Cruz do Sul,Santa Cruz Do Sul,-29.7178,-52.4258,Brazil,BR,BRA,Rio Grande do Sul,,118374.0,1076862896,santa cruz do sul
Votorantim,Votorantim,-23.5469,-47.4378,Brazil,BR,BRA,São Paulo,,117794.0,1076604064,votorantim
Codó,Codo,-4.455,-43.8858,Brazil,BR,BRA,Maranhão,,118038.0,1076537068,codo
Araguari,Araguari,-18.6489,-48.1869,Brazil,BR,BRA,Minas Gerais,,116871.0,1076402865,araguari
Tatuí,Tatui,-23.3556,-47.8569,Brazil,BR,BRA,São Paulo,,116682.0,1076587962,tatui
Conselheiro Lafaiete,Conselheiro Lafaiete,-20.66,-43.7858,Brazil,BR,BRA,Minas Gerais,,116512.0,1076456009,conselheiro lafaiete
Bagé,Bage,-31.3308,-54.1069,Brazil,BR,BRA,Rio Grande do Sul,,116794.0,1076515015,bage
Itapipoca,Itapipoca,-3.4939,-39.5789,Brazil,BR,BRA,Ceará,,116065.0,1076980375,itapipoca
Três Lagoas,Tres Lagoas,-20.7511,-51.6783,Brazil,BR,BRA,Mato Grosso do Sul,,115561.0,1076281782,tres lagoas
Salto,Salto,-23.2008,-47.2869,Brazil,BR,BRA,São Paulo,,114171.0,1076427264,salto
Maranguape,Maranguape,-3.89,-38.6858,Brazil,BR,BRA,Ceará,,113561.0,1076845536,maranguape
Ubá,Uba,-21.12,-42.9428,Brazil,BR,BRA,Minas Gerais,,113300.0,1076389529,uba
Caraguatatuba,Caraguatatuba,-23.62,-45.4128,Brazil,BR,BRA,São Paulo,,113317.0,1076107372,caraguatatuba
Euriápolis,Euriapolis,-16.3778,-39.58,Brazil,BR,BRA,Bahia,,113191.0,1076770753,euriapolis
Campo Largo,Campo Largo,-25.4589,-49.5278,Brazil,BR,BRA,Paraná,,112377.0,1076072105,campo largo
Araruama,Araruama,-22.8728,-42.3428,Brazil,BR,BRA,Rio de Janeiro,,112008.0,1076900900,araruama
Corumbá,Corumba,-19.0089,-57.6528,Brazil,BR,BRA,Mato Grosso do Sul,,112058.0,1076131775,corumba
Colatina,Colatina,-19.5389,-40.6308,Brazil,BR,BRA,Espírito Santo,,111788.0,1076751743,colatina
Parintins,Parintins,-2.6278,-56.7358,Brazil,BR,BRA,Amazonas,,111575.0,1076090375,parintins
Catalão,Catalao,-18.17,-47.9419,Brazil,BR,BRA,Goiás,,110983.0,1076169871,catalao
Ourinhos,Ourinhos,-22.9744,-49.8719,Brazil,BR,BRA,São Paulo,,110282.0,1076551408,ourinhos
Altamira,Altamira,-3.2028,-52.2058,Brazil,BR,BRA,Pará,,109938.0,1076710878,altamira
Itabira,Itabira,-19.6189,-43.2269,Brazil,BR,BRA,Minas Gerais,,109783.0,1076783407,itabira
São Mateus,Sao Mateus,-18.7158,-39.8589,Brazil,BR,BRA,Espírito Santo,,109028.0,1076829621,sao mateus
Erechim,Erechim,-27.6339,-52.2739,Brazil,BR,BRA,Rio Grande do Sul,,106633.0,1076359548,erechim
Patos,Patos,-7.0244,-37.28,Brazil,BR,BRA,Paraíba,,106314.0,1076232522,patos
Passos,Passos,-20.7189,-46.61,Brazil,BR,BRA,Minas Gerais,,106290.0,1076782492,passos
Vespasiano,Vespasiano,-19.6919,-43.9228,Brazil,BR,BRA,Minas Gerais,,104527.0,1076342199,vespasiano
Ariquemes,Ariquemes,-9.9161,-63.0408,Brazil,BR,BRA,Rondônia,,105896.0,1076442639,ariquemes
Paço do Lumiar,Paco Do Lumiar,-2.5319,-44.1078,Brazil,BR,BRA,Maranhão,,105121.0,1076632637,paco do lumiar
Assis,Assis,-22.6619,-50.4119,Brazil,BR,BRA,São Paulo,,105087.0,1076782502,assis
Trindade,Trindade,-16.6581,-49.4836,Brazil,BR,BRA,Goiás,,104488.0,1076815881,trindade
Leme,Leme,-22.1861,-47.3906,Brazil,BR,BRA,São Paulo,,104346.0,1076542731,leme
Arapongas,Arapongas,-23.4189,-51.4239,Brazil,BR,BRA,Paraná,,104150.0,1076623771,arapongas
Coronel Fabriciano,Coronel Fabriciano,-19.5189,-42.6289,Brazil,BR,BRA,Minas Gerais,,103694.0,1076563450,coronel fabriciano
Açailandia,Acailandia,-4.9469,-47.505,Brazil,BR,BRA,Tocantins,,104047.0,1076993685,acailandia
Araxá,Araxa,-19.5928,-46.9408,Brazil,BR,BRA,Minas Gerais,,103287.0,1076259402,araxa
Almirante Tamandaré,Almirante Tamandare,-25.325,-49.31,Brazil,BR,BRA,Paraná,,103204.0,1076372357,almirante tamandare
São Lourenço da Mata,Sao Lourenco Da Mata,-8.0019,-35.0178,Brazil,BR,BRA,Pernambuco,,102895.0,1076714150,sao lourenco da mata
Itanhaém,Itanhaem,-24.1806,-46.7828,Brazil,BR,BRA,São Paulo,,103102.0,1076274068,itanhaem
Igarassu,Igarassu,-7.8342,-34.9064,Brazil,BR,BRA,Pernambuco,,102021.0,1076739866,igarassu
Santo Antônio de Jesus,Santo Antonio De Jesus,-12.9692,-39.2611,Brazil,BR,BRA,Bahia,,101548.0,1076231231,santo antonio de jesus
Balsas,Balsas,-7.5328,-46.0358,Brazil,BR,BRA,Maranhão,,101456.0,1076067021,balsas
Muriaé,Muriae,-21.1306,-42.3664,Brazil,BR,BRA,Minas Gerais,,100765.0,1076003733,muriae
Umuarama,Umuarama,-23.7658,-53.325,Brazil,BR,BRA,Paraná,,100676.0,1076793612,umuarama
Mairiporã,Mairipora,-23.3189,-46.5869,Brazil,BR,BRA,São Paulo,,100179.0,1076161359,mairipora
Formosa,Formosa,-15.5369,-47.3339,Brazil,BR,BRA,Goiás,,100085.0,1076601172,formosa
Bacabal,Bacabal,-4.225,-44.78,Brazil,BR,BRA,Maranhão,,100014.0,1076125117,bacabal
Bayeux,Bayeux,-7.1333,-34.9333,Brazil,BR,BRA,Paraíba,,96140.0,1076607187,bayeux
Esteio,Esteio,-29.8608,-51.1789,Brazil,BR,BRA,Rio Grande do Sul,,80755.0,1076924823,esteio
Campo Formoso,Campo Formoso,-10.5089,-40.3208,Brazil,BR,BRA,Bahia,,72271.0,1076847580,campo formoso
Cabedelo,Cabedelo,-6.9808,-34.8339,Brazil,BR,BRA,Paraíba,,65634.0,1076791382,cabedelo
Euclides da Cunha,Euclides Da Cunha,-10.5078,-39.0139,Brazil,BR,BRA,Bahia,,60666.0,1076277178,euclides da cunha
Mineiros,Mineiros,-17.5689,-52.5508,Brazil,BR,BRA,Goiás,,52935.0,1076000916,mineiros
Riacho de Santana,Riacho De Santana,-13.6089,-42.9389,Brazil,BR,BRA,Bahia,,36039.0,1076808220,riacho de santana
Pompeu,Pompeu,-19.2239,-44.935,Brazil,BR,BRA,Minas Gerais,,29105.0,1076507348,pompeu
Ipu,Ipu,-4.3257,-40.7103,Brazil,BR,BRA,Ceará,,26678.0,1076972725,ipu
Arapoti,Arapoti,-24.1578,-49.8269,Brazil,BR,BRA,Paraná,,25855.0,1076793835,arapoti
Itambé,Itambe,-15.245,-40.6239,Brazil,BR,BRA,Bahia,,23327.0,1076307665,itambe
Pedreiras,Pedreiras,-4.5696,-44.67,Brazil,BR,BRA,Maranhão,,13638.0,1076527878,pedreiras
Cachoeira Alta,Cachoeira Alta,-18.7628,-50.9419,Brazil,BR,BRA,Goiás,,10553.0,1076336461,cachoeira alta
Elesbão Veloso,Elesbao Veloso,-6.2019,-42.14,Brazil,BR,BRA,Piauí,,14512.0,1076369423,elesbao veloso
Breves,Breves,-1.6819,-50.48,Brazil,BR,BRA,Pará,,99080.0,1076061751,breves
Itaituba,Itaituba,-4.2758,-55.9839,Brazil,BR,BRA,Pará,,98485.0,1076849673,itaituba
Paulínia,Paulinia,-22.7611,-47.1542,Brazil,BR,BRA,São Paulo,,97702.0,1076327352,paulinia
Paragominas,Paragominas,-2.9958,-47.3528,Brazil,BR,BRA,Pará,,97819.0,1076557071,paragominas
Tubarão,Tubarao,-28.4667,-49.0069,Brazil,BR,BRA,Santa Catarina,,97235.0,1076663243,tubarao
Valença,Valenca,-13.37,-39.0728,Brazil,BR,BRA,Bahia,,97305.0,1076455406,valenca
Ituiutaba,Ituiutaba,-18.9667,-49.4667,Brazil,BR,BRA,Minas Gerais,,97171.0,1076873111,ituiutaba
Tucuruí,Tucurui,-3.7678,-49.6728,Brazil,BR,BRA,Pará,,97128.0,1076000076,tucurui
Itacoatiara,Itacoatiara,-3.1428,-58.4439,Brazil,BR,BRA,Amazonas,,97122.0,1076759384,itacoatiara
Barra do Piraí,Barra Do Pirai,-22.47,-43.8258,Brazil,BR,BRA,Rio de Janeiro,,96865.0,1076997923,barra do pirai
Caieiras,Caieiras,-23.3644,-46.7408,Brazil,BR,BRA,São Paulo,,95780.0,1076000967,caieiras
Cambé,Cambe,-23.2758,-51.2778,Brazil,BR,BRA,Paraná,,96733.0,1076233235,cambe
Japeri,Japeri,-22.6431,-43.6533,Brazil,BR,BRA,Rio de Janeiro,,95492.0,1076331274,japeri
Iguatu,Iguatu,-6.3589,-39.2989,Brazil,BR,BRA,Ceará,,96495.0,1076734026,iguatu
Nova Lima,Nova Lima,-19.9858,-43.8469,Brazil,BR,BRA,Minas Gerais,,96157.0,1076876220,nova lima
Itaperuna,Itaperuna,-21.205,-41.8878,Brazil,BR,BRA,Rio de Janeiro,,95841.0,1076348886,itaperuna
Guaíba,Guaiba,-30.1139,-51.325,Brazil,BR,BRA,Rio Grande do Sul,,95204.0,1076594929,guaiba
Abreu e Lima,Abreu E Lima,-7.9117,-34.9028,Brazil,BR,BRA,Pernambuco,,94429.0,1076355835,abreu e lima
Lagarto,Lagarto,-10.9169,-37.65,Brazil,BR,BRA,Sergipe,,94861.0,1076051433,lagarto
Manacapuru,Manacapuru,-3.3,-60.6206,Brazil,BR,BRA,Amazonas,,94175.0,1076484341,manacapuru
Itaúna,Itauna,-20.075,-44.5758,Brazil,BR,BRA,Minas Gerais,,93847.0,1076321811,itauna
Vilhena,Vilhena,-12.7406,-60.1458,Brazil,BR,BRA,Rondônia,,93745.0,1076196581,vilhena
Piraquara,Piraquara,-25.4419,-49.0628,Brazil,BR,BRA,Paraná,,93207.0,1076240504,piraquara
Itumbiara,Itumbiara,-18.4167,-49.2167,Brazil,BR,BRA,Goiás,,92883.0,1076693747,itumbiara
Itapeva,Itapeva,-23.9819,-48.8758,Brazil,BR,BRA,São Paulo,,92710.0,1076767110,itapeva
Lavras,Lavras,-21.245,-45.0,Brazil,BR,BRA,Minas Gerais,,92200.0,1076751259,lavras
Ubatuba,Ubatuba,-23.4339,-45.0708,Brazil,BR,BRA,São Paulo,,91824.0,1076510903,ubatuba
São João da Boa Vista,Sao Joao Da Boa Vista,-21.9689,-46.7978,Brazil,BR,BRA,São Paulo,,91771.0,1076459561,sao joao da boa vista
Mogi Mirim,Mogi Mirim,-22.4319,-46.9578,Brazil,BR,BRA,São Paulo,,91483.0,1076719683,mogi mirim
Votuporanga,Votuporanga,-20.4228,-49.9728,Brazil,BR,BRA,São Paulo,,91278.0,1076423091,votuporanga
Caçapava,Cacapava,-23.1008,-45.7069,Brazil,BR,BRA,São Paulo,,91162.0,1076289420,cacapava
São Félix do Xingu,Sao Felix Do Xingu,-6.6333,-51.9833,Brazil,BR,BRA,Pará,,91340.0,1076909404,sao felix do xingu
Avaré,Avare,-23.0989,-48.9258,Brazil,BR,BRA,São Paulo,,91232.0,1076118860,avare
Cáceres,Caceres,-16.0711,-57.6789,Brazil,BR,BRA,Mato Grosso,,91271.0,1076422654,caceres
Itajubá,Itajuba,-22.4258,-45.4528,Brazil,BR,BRA,Minas Gerais,,90658.0,1076423300,itajuba
São João del Rei,Sao Joao Del Rei,-21.1358,-44.2619,Brazil,BR,BRA,Minas Gerais,,90497.0,1076559413,sao joao del rei
São Sebastião,Sao Sebastiao,-23.804,-45.4051,Brazil,BR,BRA,São Paulo,,90328.0,1076889310,sao sebastiao
Candeias,Candeias,-12.6678,-38.5508,Brazil,BR,BRA,Bahia,,88806.0,1076438209,candeias
Ponta Porã,Ponta Pora,-22.5358,-55.7258,Brazil,BR,BRA,Mato Grosso do Sul,,88164.0,1076647935,ponta pora
São Pedro da Aldeia,Sao Pedro Da Aldeia,-22.8389,-42.1028,Brazil,BR,BRA,Rio de Janeiro,,87875.0,1076616321,sao pedro da aldeia
São Gonçalo do Amarante,Sao Goncalo Do Amarante,-5.7928,-35.3289,Brazil,BR,BRA,Rio Grande do Norte,,87668.0,1076732684,sao goncalo do amarante
Jataí,Jatai,-17.8808,-51.8306,Brazil,BR,BRA,Goiás,,88006.0,1076908960,jatai
Santa Cruz do Capibaribe,Santa Cruz Do Capibaribe,-7.9569,-36.205,Brazil,BR,BRA,Pernambuco,,87582.0,1076235057,santa cruz do capibaribe
Itabaiana,Itabaiana,-10.685,-37.425,Brazil,BR,BRA,Sergipe,,86967.0,1076643218,itabaiana
São Cristóvão,Sao Cristovao,-11.015,-37.2058,Brazil,BR,BRA,Sergipe,,86979.0,1076642686,sao cristovao
São Roque,Sao Roque,-23.5289,-47.135,Brazil,BR,BRA,São Paulo,,86515.0,1076621665,sao roque
Cacoal,Cacoal,-11.4386,-61.4472,Brazil,BR,BRA,Rondônia,,85893.0,1076046408,cacoal
Coari,Coari,-4.085,-63.1408,Brazil,BR,BRA,Amazonas,,85910.0,1076899406,coari
Guanambi,Guanambi,-14.2228,-42.7808,Brazil,BR,BRA,Bahia,,85797.0,1076791780,guanambi
Cachoeira do Sul,Cachoeira Do Sul,-30.0394,-52.8953,Brazil,BR,BRA,Rio Grande do Sul,,85712.0,1076336795,cachoeira do sul
Caratinga,Caratinga,-19.79,-42.1389,Brazil,BR,BRA,Minas Gerais,,85239.0,1076504581,caratinga
Jacobina,Jacobina,-11.1808,-40.5178,Brazil,BR,BRA,Bahia,,84811.0,1076049373,jacobina
Arujá,Aruja,-23.3967,-46.3211,Brazil,BR,BRA,São Paulo,,83939.0,1076436872,aruja
Senador Canedo,Senador Canedo,-16.7594,-49.0864,Brazil,BR,BRA,Goiás,,84443.0,1076337498,senador canedo
Paracatu,Paracatu,-17.2217,-46.875,Brazil,BR,BRA,Minas Gerais,,84718.0,1076347421,paracatu
Serra Talhada,Serra Talhada,-7.9858,-38.2958,Brazil,BR,BRA,Pernambuco,,84352.0,1076913729,serra talhada
Pará de Minas,Para De Minas,-19.86,-44.6078,Brazil,BR,BRA,Minas Gerais,,84215.0,1076626301,para de minas
Ijuí,Ijui,-28.3878,-53.915,Brazil,BR,BRA,Rio Grande do Sul,,83764.0,1076683915,ijui
Serrinha,Serrinha,-11.6639,-39.0078,Brazil,BR,BRA,Bahia,,83275.0,1076832200,serrinha
Santana do Livramento,Santana Do Livramento,-30.8908,-55.5328,Brazil,BR,BRA,Rio Grande do Sul,,83324.0,1076271841,santana do livramento
Seropédica,Seropedica,-22.7439,-43.7078,Brazil,BR,BRA,Rio de Janeiro,,82892.0,1076073491,seropedica
Barra do Corda,Barra Do Corda,-5.5058,-45.2428,Brazil,BR,BRA,Maranhão,,82830.0,1076745135,barra do corda
Sorriso,Sorriso,-12.545,-55.7108,Brazil,BR,BRA,Mato Grosso,,82792.0,1076873169,sorriso
Cruzeiro do Sul,Cruzeiro Do Sul,-7.6308,-72.67,Brazil,BR,BRA,Acre,,82622.0,1076881427,cruzeiro do sul
Patrocínio,Patrocinio,-18.9439,-46.9928,Brazil,BR,BRA,Minas Gerais,,82471.0,1076001071,patrocinio
Campo Mourão,Campo Mourao,-24.0458,-52.3828,Brazil,BR,BRA,Paraná,,82354.0,1076799533,campo mourao
Aracruz,Aracruz,-19.82,-40.2728,Brazil,BR,BRA,Espírito Santo,,81832.0,1076506817,aracruz
Campo Limpo,Campo Limpo,-23.2064,-46.7844,Brazil,BR,BRA,São Paulo,,80847.0,1076459810,campo limpo
Timóteo,Timoteo,-19.5828,-42.6439,Brazil,BR,BRA,Minas Gerais,,81243.0,1076541844,timoteo
Planaltina,Planaltina,-15.4528,-47.6139,Brazil,BR,BRA,Goiás,,81649.0,1076186542,planaltina
Paranavaí,Paranavai,-23.0728,-52.465,Brazil,BR,BRA,Paraná,,81590.0,1076424384,paranavai
Matão,Matao,-21.6033,-48.3658,Brazil,BR,BRA,São Paulo,,81439.0,1076497431,matao
Senhor do Bonfim,Senhor Do Bonfim,-10.4628,-40.1908,Brazil,BR,BRA,Bahia,,81330.0,1076513309,senhor do bonfim
Aquiraz,Aquiraz,-3.9008,-38.3908,Brazil,BR,BRA,Ceará,,80935.0,1076523331,aquiraz
Ipojuca,Ipojuca,-8.4,-35.0625,Brazil,BR,BRA,Pernambuco,,80637.0,1076800536,ipojuca
Manhuaçu,Manhuacu,-20.2581,-42.0336,Brazil,BR,BRA,Minas Gerais,,79574.0,1076000444,manhuacu
Alfenas,Alfenas,-21.4289,-45.9469,Brazil,BR,BRA,Minas Gerais,,79481.0,1076300425,alfenas
Pato Branco,Pato Branco,-26.2289,-52.6708,Brazil,BR,BRA,Paraná,,79011.0,1076958036,pato branco
Francisco Beltrão,Francisco Beltrao,-26.0808,-53.055,Brazil,BR,BRA,Paraná,,78943.0,1076112162,francisco beltrao
Telêmaco Borba,Telemaco Borba,-24.3239,-50.6158,Brazil,BR,BRA,Paraná,,78974.0,1076867165,telemaco borba
Moju,Moju,-1.8839,-48.7689,Brazil,BR,BRA,Pará,,78629.0,1076020210,moju
Dias d’Ávila,Dias D'Avila,-12.6128,-38.2969,Brazil,BR,BRA,Bahia,,78058.0,1076290338,dias d'avila
Pinheiro,Pinheiro,-2.5208,-45.0828,Brazil,BR,BRA,Maranhão,,78162.0,1076349995,pinheiro
Bebedouro,Bebedouro,-20.9494,-48.4792,Brazil,BR,BRA,São Paulo,,77627.0,1076045128,bebedouro
Três Rios,Tres Rios,-22.1169,-43.2089,Brazil,BR,BRA,Rio de Janeiro,,77432.0,1076943829,tres rios
Unaí,Unai,-16.3639,-46.8944,Brazil,BR,BRA,Minas Gerais,,77565.0,1076438683,unai
Santa Inês,Santa Ines,-3.6669,-45.38,Brazil,BR,BRA,Maranhão,,77282.0,1076053036,santa ines
Araripina,Araripina,-7.55,-40.5667,Brazil,BR,BRA,Pernambuco,,77302.0,1076945288,araripina
Itapetinga,Itapetinga,-15.2489,-40.2478,Brazil,BR,BRA,Bahia,,76795.0,1076005350,itapetinga
Gurupi,Gurupi,-11.7289,-49.0689,Brazil,BR,BRA,Tocantins,,76755.0,1076649238,gurupi
Gravatá,Gravata,-8.2008,-35.565,Brazil,BR,BRA,Pernambuco,,76458.0,1076214495,gravata
Ibiúna,Ibiuna,-23.6564,-47.2225,Brazil,BR,BRA,São Paulo,,76432.0,1076173752,ibiuna
Santo Ângelo,Santo Angelo,-28.2989,-54.2628,Brazil,BR,BRA,Rio Grande do Sul,,76275.0,1076113692,santo angelo
Lins,Lins,-21.6786,-49.7425,Brazil,BR,BRA,São Paulo,,76092.0,1076798294,lins
Quixadá,Quixada,-4.9708,-39.015,Brazil,BR,BRA,Ceará,,76105.0,1076173437,quixada
Jabuticabal,Jabuticabal,-21.255,-48.3219,Brazil,BR,BRA,São Paulo,,75820.0,1076368201,jabuticabal
Rio Largo,Rio Largo,-9.4778,-35.8528,Brazil,BR,BRA,Alagoas,,75645.0,1076018887,rio largo
Goiana,Goiana,-7.5608,-35.0028,Brazil,BR,BRA,Pernambuco,,75644.0,1076692421,goiana
Redenção,Redencao,-8.0289,-50.0308,Brazil,BR,BRA,Pará,,75556.0,1076392685,redencao
Sapiranga,Sapiranga,-29.6378,-51.0069,Brazil,BR,BRA,Rio Grande do Sul,,74985.0,1076553484,sapiranga
Itapira,Itapira,-22.4361,-46.8217,Brazil,BR,BRA,São Paulo,,75234.0,1076706166,itapira
Carpina,Carpina,-7.85,-35.25,Brazil,BR,BRA,Pernambuco,,74858.0,1076005200,carpina
São Bento do Sul,Sao Bento Do Sul,-26.25,-49.3789,Brazil,BR,BRA,Santa Catarina,,74801.0,1076190456,sao bento do sul
Piraçununga,Piracununga,-21.9961,-47.4258,Brazil,BR,BRA,São Paulo,,74587.0,1076467647,piracununga
Canindé,Caninde,-4.3589,-39.3119,Brazil,BR,BRA,Ceará,,74473.0,1076519156,caninde
Saquarema,Saquarema,-22.92,-42.51,Brazil,BR,BRA,Rio de Janeiro,,74234.0,1076235078,saquarema
Palmeira dos Índios,Palmeira Dos Indios,-9.4069,-36.6278,Brazil,BR,BRA,Alagoas,,74208.0,1076723276,palmeira dos indios
João Monlevade,Joao Monlevade,-19.81,-43.1739,Brazil,BR,BRA,Minas Gerais,,73610.0,1076127295,joao monlevade
Curvelo,Curvelo,-18.7558,-44.4308,Brazil,BR,BRA,Minas Gerais,,74219.0,1076253887,curvelo
Ouro Prêto,Ouro Preto,-20.3853,-43.5036,Brazil,BR,BRA,Minas Gerais,,74036.0,1076240779,ouro preto
Santa Rosa,Santa Rosa,-27.8708,-54.4808,Brazil,BR,BRA,Rio Grande do Sul,,73882.0,1076071027,santa rosa
Nova Serrana,Nova Serrana,-19.8667,-44.9833,Brazil,BR,BRA,Minas Gerais,,73699.0,1076026436,nova serrana
Irecê,Irece,-11.3039,-41.8558,Brazil,BR,BRA,Bahia,,73380.0,1076348562,irece
Picos,Picos,-7.0769,-41.4669,Brazil,BR,BRA,Piauí,,73414.0,1076752928,picos
Vinhedo,Vinhedo,-23.03,-46.975,Brazil,BR,BRA,São Paulo,,72550.0,1076383405,vinhedo
Chapadinha,Chapadinha,-3.7419,-43.36,Brazil,BR,BRA,Maranhão,,73350.0,1076901443,chapadinha
Farroupilha,Farroupilha,-29.225,-51.3478,Brazil,BR,BRA,Rio Grande do Sul,,73061.0,1076221850,farroupilha
Alegrete,Alegrete,-29.7839,-55.7911,Brazil,BR,BRA,Rio Grande do Sul,,73028.0,1076174745,alegrete
Três Corações,Tres Coracoes,-21.6947,-45.2553,Brazil,BR,BRA,Minas Gerais,,72765.0,1076131585,tres coracoes
Pacatuba,Pacatuba,-3.9839,-38.62,Brazil,BR,BRA,Ceará,,72299.0,1076428186,pacatuba
Amparo,Amparo,-22.7031,-46.765,Brazil,BR,BRA,São Paulo,,72677.0,1076656250,amparo
Crateús,Crateus,-5.1778,-40.6778,Brazil,BR,BRA,Ceará,,72812.0,1076897989,crateus
Aracati,Aracati,-4.5619,-37.77,Brazil,BR,BRA,Ceará,,72727.0,1076708817,aracati
Belo Jardim,Belo Jardim,-8.3358,-36.4239,Brazil,BR,BRA,Pernambuco,,72432.0,1076631616,belo jardim
Cajamar,Cajamar,-23.3558,-46.8769,Brazil,BR,BRA,São Paulo,,71805.0,1076369653,cajamar
Lajeado,Lajeado,-29.4669,-51.9608,Brazil,BR,BRA,Rio Grande do Sul,,71445.0,1076361223,lajeado
Casa Nova,Casa Nova,-9.1619,-40.9708,Brazil,BR,BRA,Bahia,,72172.0,1076947710,casa nova
Quixeramobim,Quixeramobim,-5.1989,-39.2928,Brazil,BR,BRA,Ceará,,71887.0,1076495439,quixeramobim
Caçador,Cacador,-26.775,-51.015,Brazil,BR,BRA,Santa Catarina,,70762.0,1076703793,cacador
São Sebastião do Paraíso,Sao Sebastiao Do Paraiso,-20.9169,-46.9908,Brazil,BR,BRA,Minas Gerais,,70450.0,1076022954,sao sebastiao do paraiso
Caldas Novas,Caldas Novas,-17.7439,-48.6258,Brazil,BR,BRA,Goiás,,70473.0,1076906502,caldas novas
Cianorte,Cianorte,-23.6628,-52.605,Brazil,BR,BRA,Paraná,,69958.0,1076944079,cianorte
Cataguases,Cataguases,-21.3889,-42.6969,Brazil,BR,BRA,Minas Gerais,,69757.0,1076169159,cataguases
Russas,Russas,-4.94,-37.9758,Brazil,BR,BRA,Ceará,,69833.0,1076843360,russas
Macaíba,Macaiba,-5.8578,-35.3539,Brazil,BR,BRA,Rio Grande do Norte,,69467.0,1076176042,macaiba
Bom Jesus da Lapa,Bom Jesus Da Lapa,-13.255,-43.4178,Brazil,BR,BRA,Bahia,,69526.0,1076439517,bom jesus da lapa
Fernandópolis,Fernandopolis,-20.2839,-50.2458,Brazil,BR,BRA,São Paulo,,69402.0,1076205721,fernandopolis
Brumado,Brumado,-14.2039,-41.665,Brazil,BR,BRA,Bahia,,69255.0,1076669684,brumado
Mococa,Mococa,-21.4678,-47.0047,Brazil,BR,BRA,São Paulo,,68980.0,1076000865,mococa
Arcoverde,Arcoverde,-8.4189,-37.0539,Brazil,BR,BRA,Pernambuco,,68793.0,1076499713,arcoverde
Tianguá,Tiangua,-3.7319,-40.9919,Brazil,BR,BRA,Ceará,,68892.0,1076661273,tiangua
Sousa,Sousa,-6.7608,-38.2308,Brazil,BR,BRA,Paraíba,,68822.0,1076742573,sousa
Concórdia,Concordia,-27.2339,-52.0278,Brazil,BR,BRA,Santa Catarina,,68621.0,1076922195,concordia
Ceará-Mirim,Ceara-Mirim,-5.6339,-35.4258,Brazil,BR,BRA,Rio Grande do Norte,,68141.0,1076913277,ceara-mirim
Conceição do Coité,Conceicao Do Coite,-11.5639,-39.2828,Brazil,BR,BRA,Bahia,,68146.0,1076125877,conceicao do coite
Embu-Guaçu,Embu-Guacu,-23.8322,-46.8114,Brazil,BR,BRA,São Paulo,,67296.0,1076814441,embu-guacu
Caicó,Caico,-6.4578,-37.0978,Brazil,BR,BRA,Rio Grande do Norte,,67259.0,1076251820,caico
Itamaraju,Itamaraju,-17.0389,-39.5308,Brazil,BR,BRA,Bahia,,67249.0,1076241282,itamaraju
Rio Negro,Rio Negro,-26.1,-49.79,Brazil,BR,BRA,Paraná,,65597.0,1076653242,rio negro
Cosmópolis,Cosmopolis,-22.6458,-47.1961,Brazil,BR,BRA,São Paulo,,66807.0,1076281064,cosmopolis
Tabatinga,Tabatinga,-4.2525,-69.9381,Brazil,BR,BRA,Amazonas,,67182.0,1076877236,tabatinga
Castro,Castro,-24.7908,-50.0119,Brazil,BR,BRA,Paraná,,67084.0,1076233349,castro
Capanema,Capanema,-1.1958,-47.1808,Brazil,BR,BRA,Pará,,66759.0,1076799309,capanema
Janaúba,Janauba,-15.8028,-43.3089,Brazil,BR,BRA,Minas Gerais,,66803.0,1076293809,janauba
Itaberaba,Itaberaba,-12.5278,-40.3069,Brazil,BR,BRA,Bahia,,66310.0,1076160849,itaberaba
Lençóis Paulista,Lencois Paulista,-22.5986,-48.8003,Brazil,BR,BRA,São Paulo,,66131.0,1076632312,lencois paulista
União dos Palmares,Uniao Dos Palmares,-9.1628,-36.0319,Brazil,BR,BRA,Alagoas,,66017.0,1076598708,uniao dos palmares
Venâncio Aires,Venancio Aires,-29.6058,-52.1919,Brazil,BR,BRA,Rio Grande do Sul,,65946.0,1076887157,venancio aires
Tupã,Tupa,-21.935,-50.5139,Brazil,BR,BRA,São Paulo,,65651.0,1076738637,tupa
Icó,Ico,-6.4008,-38.8619,Brazil,BR,BRA,Ceará,,65456.0,1076569458,ico
Januária,Januaria,-15.4878,-44.3619,Brazil,BR,BRA,Minas Gerais,,65463.0,1076924780,januaria
Peruíbe,Peruibe,-24.31,-47.0,Brazil,BR,BRA,São Paulo,,65226.0,1076398365,peruibe
Viana,Viana,-20.39,-40.4958,Brazil,BR,BRA,Espírito Santo,,65001.0,1076304289,viana
Formiga,Formiga,-20.4639,-45.4258,Brazil,BR,BRA,Minas Gerais,,65128.0,1076994550,formiga
Bertioga,Bertioga,-23.8539,-46.1389,Brazil,BR,BRA,São Paulo,,64723.0,1076752421,bertioga
Cruz das Almas,Cruz Das Almas,-12.67,-39.1019,Brazil,BR,BRA,Bahia,,64197.0,1076285577,cruz das almas
Estância,Estancia,-11.2678,-37.4378,Brazil,BR,BRA,Sergipe,,64409.0,1076069381,estancia
Ouricuri,Ouricuri,-7.8828,-40.0819,Brazil,BR,BRA,Pernambuco,,64358.0,1076194030,ouricuri
Penedo,Penedo,-10.29,-36.5858,Brazil,BR,BRA,Alagoas,minor,64074.0,1076906021,penedo
Escada,Escada,-8.3592,-35.2236,Brazil,BR,BRA,Pernambuco,,63517.0,1076990073,escada
Rolândia,Rolandia,-23.31,-51.3689,Brazil,BR,BRA,Paraná,,63316.0,1076756563,rolandia
Santo Antônio do Descoberto,Santo Antonio Do Descoberto,-15.94,-48.255,Brazil,BR,BRA,Goiás,,63248.0,1076123384,santo antonio do descoberto
Itupeva,Itupeva,-23.1531,-47.0578,Brazil,BR,BRA,São Paulo,,62813.0,1076387390,itupeva
Batatais,Batatais,-20.8911,-47.585,Brazil,BR,BRA,São Paulo,,62980.0,1076581214,batatais
São Borja,Sao Borja,-28.6608,-56.0039,Brazil,BR,BRA,Rio Grande do Sul,,62990.0,1076315333,sao borja
Pesqueira,Pesqueira,-8.3617,-36.6947,Brazil,BR,BRA,Pernambuco,,62931.0,1076637932,pesqueira
Cruz Alta,Cruz Alta,-28.6386,-53.6064,Brazil,BR,BRA,Rio Grande do Sul,,62821.0,1076542905,cruz alta
Camaquã,Camaqua,-30.8528,-51.8153,Brazil,BR,BRA,Rio Grande do Sul,,62764.0,1076449009,camaqua
Oriximiná,Oriximina,-1.7658,-55.8658,Brazil,BR,BRA,Pará,,62794.0,1076567469,oriximina
Camboriú,Camboriu,-27.025,-48.6539,Brazil,BR,BRA,Santa Catarina,,62361.0,1076088300,camboriu
Tefé,Tefe,-3.3539,-64.7108,Brazil,BR,BRA,Amazonas,,62444.0,1076049089,tefe
Caràzinho,Carazinho,-28.2839,-52.7858,Brazil,BR,BRA,Rio Grande do Sul,,62265.0,1076906274,carazinho
Penápolis,Penapolis,-21.42,-50.0778,Brazil,BR,BRA,São Paulo,,62071.0,1076587749,penapolis
Itapecuru Mirim,Itapecuru Mirim,-3.3928,-44.3589,Brazil,BR,BRA,Maranhão,,62110.0,1076422017,itapecuru mirim
Ipirá,Ipira,-12.1578,-39.7369,Brazil,BR,BRA,Bahia,,62095.0,1076297000,ipira
Grajaú,Grajau,-5.8189,-46.1389,Brazil,BR,BRA,Maranhão,,62093.0,1076344134,grajau
Morada Nova,Morada Nova,-5.1069,-38.3728,Brazil,BR,BRA,Ceará,,62065.0,1076522163,morada nova
Pacajus,Pacajus,-4.1728,-38.4608,Brazil,BR,BRA,Ceará,,61838.0,1076601122,pacajus
Piripiri,Piripiri,-4.2728,-41.7769,Brazil,BR,BRA,Piauí,,61834.0,1076867493,piripiri
Santo Amaro,Santo Amaro,-12.5469,-38.7119,Brazil,BR,BRA,Bahia,,61702.0,1076891792,santo amaro
São Miguel dos Campos,Sao Miguel Dos Campos,-9.7808,-36.0939,Brazil,BR,BRA,Alagoas,,61797.0,1076922200,sao miguel dos campos
Coroatá,Coroata,-4.13,-44.1239,Brazil,BR,BRA,Maranhão,,61725.0,1076890180,coroata
Cajazeiras,Cajazeiras,-6.89,-38.5619,Brazil,BR,BRA,Paraíba,,61431.0,1076367392,cajazeiras
Araranguá,Ararangua,-28.935,-49.4858,Brazil,BR,BRA,Santa Catarina,minor,61310.0,1076532332,ararangua
Rio do Sul,Rio Do Sul,-27.2139,-49.6428,Brazil,BR,BRA,Santa Catarina,,61198.0,1076530229,rio do sul
Vacaria,Vacaria,-28.5119,-50.9339,Brazil,BR,BRA,Rio Grande do Sul,,61342.0,1076001152,vacaria
Acaraú,Acarau,-2.8858,-40.12,Brazil,BR,BRA,Ceará,,61210.0,1076016462,acarau
Navegantes,Navegantes,-26.8989,-48.6539,Brazil,BR,BRA,Santa Catarina,,60556.0,1076398974,navegantes
Campo Bom,Campo Bom,-29.6789,-51.0528,Brazil,BR,BRA,Rio Grande do Sul,,60074.0,1076977021,campo bom
Igarapé-Miri,Igarape-Miri,-1.975,-48.96,Brazil,BR,BRA,Pará,,60675.0,1076517048,igarape-miri
Ibitinga,Ibitinga,-21.7578,-48.8289,Brazil,BR,BRA,São Paulo,,60600.0,1076462788,ibitinga
Mirassol,Mirassol,-20.8189,-49.5208,Brazil,BR,BRA,São Paulo,,60303.0,1076772486,mirassol
São Gabriel,Sao Gabriel,-30.3358,-54.32,Brazil,BR,BRA,Rio Grande do Sul,,60425.0,1076674208,sao gabriel
Esmeraldas,Esmeraldas,-19.7628,-44.3139,Brazil,BR,BRA,Minas Gerais,,60271.0,1076007995,esmeraldas
Camocim,Camocim,-2.9019,-40.8408,Brazil,BR,BRA,Ceará,,60158.0,1076563942,camocim
Benevides,Benevides,-1.3608,-48.245,Brazil,BR,BRA,Pará,,59836.0,1076726167,benevides
Lagoa Santa,Lagoa Santa,-19.6269,-43.89,Brazil,BR,BRA,Minas Gerais,,59770.0,1076169949,lagoa santa
Maués,Maues,-3.3836,-57.7186,Brazil,BR,BRA,Amazonas,,59983.0,1076490155,maues
Palmares,Palmares,-8.6828,-35.5919,Brazil,BR,BRA,Pernambuco,,59526.0,1076270377,palmares
Goianésia,Goianesia,-15.3169,-49.1169,Brazil,BR,BRA,Goiás,,59549.0,1076636505,goianesia
Montenegro,Montenegro,-29.6889,-51.4608,Brazil,BR,BRA,Rio Grande do Sul,,59415.0,1076000662,montenegro
Santa Isabel do Pará,Santa Isabel Do Para,-1.2989,-48.1608,Brazil,BR,BRA,Pará,,59466.0,1076463384,santa isabel do para
Lucas do Rio Verde,Lucas Do Rio Verde,-13.05,-55.9108,Brazil,BR,BRA,Mato Grosso,,59436.0,1076459192,lucas do rio verde
Jaguariúna,Jaguariuna,-22.68,-46.99,Brazil,BR,BRA,São Paulo,,58722.0,1076822145,jaguariuna
Barra do Garças,Barra Do Garcas,-15.89,-52.2569,Brazil,BR,BRA,Mato Grosso,,58974.0,1076425403,barra do garcas
Pedro Leopoldo,Pedro Leopoldo,-19.6178,-44.0428,Brazil,BR,BRA,Minas Gerais,,58740.0,1076144411,pedro leopoldo
Bezerros,Bezerros,-8.2333,-35.75,Brazil,BR,BRA,Pernambuco,,58668.0,1076456541,bezerros
Surubim,Surubim,-7.8319,-35.7558,Brazil,BR,BRA,Pernambuco,,58515.0,1076815713,surubim
Guarabira,Guarabira,-6.855,-35.49,Brazil,BR,BRA,Paraíba,,58162.0,1076842460,guarabira
Biguaçu,Biguacu,-27.4939,-48.6558,Brazil,BR,BRA,Santa Catarina,,58206.0,1076869861,biguacu
Gaspar,Gaspar,-26.9308,-48.9589,Brazil,BR,BRA,Santa Catarina,,57981.0,1076754588,gaspar
Campo Alegre,Campo Alegre,-9.7819,-36.3508,Brazil,BR,BRA,Alagoas,,57548.0,1076386570,campo alegre
Floriano,Floriano,-6.7669,-43.0228,Brazil,BR,BRA,Piauí,,57690.0,1076813660,floriano
Nova Odessa,Nova Odessa,-22.7797,-47.2962,Brazil,BR,BRA,São Paulo,,56764.0,1076061503,nova odessa
Ponte Nova,Ponte Nova,-20.4158,-42.9089,Brazil,BR,BRA,Minas Gerais,,57390.0,1076567178,ponte nova
Içara,Icara,-28.7128,-49.3,Brazil,BR,BRA,Santa Catarina,,57247.0,1076881795,icara
Coruripe,Coruripe,-10.1258,-36.1758,Brazil,BR,BRA,Alagoas,,57294.0,1076998029,coruripe
Andradina,Andradina,-20.8958,-51.3789,Brazil,BR,BRA,São Paulo,,57250.0,1076417183,andradina
Moreno,Moreno,-8.1186,-35.0922,Brazil,BR,BRA,Pernambuco,,56696.0,1076066897,moreno
Jacundá,Jacunda,-4.4508,-49.1158,Brazil,BR,BRA,Pará,,56781.0,1076998765,jacunda
Viseu,Viseu,-1.1969,-46.14,Brazil,BR,BRA,Pará,,56716.0,1076429547,viseu
Taquaritinga,Taquaritinga,-21.4058,-48.505,Brazil,BR,BRA,São Paulo,,56587.0,1076141127,taquaritinga
Salgueiro,Salgueiro,-8.0669,-39.1222,Brazil,BR,BRA,Pernambuco,,56629.0,1076679973,salgueiro
Manicoré,Manicore,-5.8089,-61.3,Brazil,BR,BRA,Amazonas,,56583.0,1076657983,manicore
Tomé-Açu,Tome-Acu,-2.4189,-48.1519,Brazil,BR,BRA,Pará,,56518.0,1076866918,tome-acu
Registro,Registro,-24.4878,-47.8439,Brazil,BR,BRA,São Paulo,,56393.0,1076533111,registro
Araci,Araci,-11.3328,-38.9669,Brazil,BR,BRA,Bahia,,56370.0,1076885835,araci
Monte Alegre,Monte Alegre,-2.0078,-54.0689,Brazil,BR,BRA,Pará,,56391.0,1076174262,monte alegre
Limoeiro do Norte,Limoeiro Do Norte,-5.1458,-38.0978,Brazil,BR,BRA,Ceará,,56264.0,1076525292,limoeiro do norte
Irati,Irati,-25.4669,-50.6508,Brazil,BR,BRA,Paraná,,56207.0,1076276918,irati
Boituva,Boituva,-23.2833,-47.6722,Brazil,BR,BRA,São Paulo,,55725.0,1076277699,boituva
Catu,Catu,-12.3497,-38.3831,Brazil,BR,BRA,Bahia,,55719.0,1076222188,catu
Jaru,Jaru,-10.4389,-62.4664,Brazil,BR,BRA,Rondônia,,55806.0,1076089235,jaru
Tucano,Tucano,-10.9628,-38.7869,Brazil,BR,BRA,Bahia,,55777.0,1076227914,tucano
Tauá,Taua,-6.0028,-40.2928,Brazil,BR,BRA,Ceará,,55716.0,1076613312,taua
Limoeiro,Limoeiro,-7.875,-35.45,Brazil,BR,BRA,Pernambuco,,55439.0,1076675901,limoeiro
Monte Mor,Monte Mor,-22.9467,-47.315,Brazil,BR,BRA,São Paulo,,55409.0,1076728241,monte mor
Horizonte,Horizonte,-4.0989,-38.4958,Brazil,BR,BRA,Ceará,,55187.0,1076238174,horizonte
Jaguaquara,Jaguaquara,-13.5308,-39.9708,Brazil,BR,BRA,Bahia,,55449.0,1076420862,jaguaquara
Rolim de Moura,Rolim De Moura,-11.7254,-61.7778,Brazil,BR,BRA,Rondônia,,55407.0,1076556836,rolim de moura
Barbalha,Barbalha,-7.305,-39.3019,Brazil,BR,BRA,Ceará,,55323.0,1076490598,barbalha
Juruti,Juruti,-2.1519,-56.0919,Brazil,BR,BRA,Pará,,55179.0,1076008475,juruti
Santa Isabel,Santa Isabel,-23.3158,-46.2208,Brazil,BR,BRA,São Paulo,,54926.0,1076338328,santa isabel
Viçosa do Ceará,Vicosa Do Ceara,-3.5619,-41.0919,Brazil,BR,BRA,Ceará,,54955.0,1076236694,vicosa do ceara
Pôrto Ferreira,Porto Ferreira,-21.8539,-47.4789,Brazil,BR,BRA,São Paulo,,54761.0,1076743280,porto ferreira
Indaial,Indaial,-26.8978,-49.2319,Brazil,BR,BRA,Santa Catarina,,54854.0,1076950422,indaial
Alenquer,Alenquer,-1.9419,-54.7378,Brazil,BR,BRA,Pará,,54960.0,1076529970,alenquer
Barreirinhas,Barreirinhas,-2.7469,-42.8258,Brazil,BR,BRA,Maranhão,,54930.0,1076060419,barreirinhas
Taquara,Taquara,-29.6508,-50.7808,Brazil,BR,BRA,Rio Grande do Sul,,54643.0,1076672393,taquara
Monte Santo,Monte Santo,-10.4378,-39.3328,Brazil,BR,BRA,Bahia,,54733.0,1076713120,monte santo
São José do Rio Pardo,Sao Jose Do Rio Pardo,-21.5958,-46.8889,Brazil,BR,BRA,São Paulo,,54388.0,1076381687,sao jose do rio pardo
Cachoeiras de Macacu,Cachoeiras De Macacu,-22.4628,-42.6528,Brazil,BR,BRA,Rio de Janeiro,,54273.0,1076367130,cachoeiras de macacu
Barra,Barra,-11.0889,-43.1419,Brazil,BR,BRA,Bahia,,54188.0,1076053089,barra
Acará,Acara,-1.9608,-48.1969,Brazil,BR,BRA,Pará,,54080.0,1076141011,acara
Três Pontas,Tres Pontas,-21.3669,-45.5128,Brazil,BR,BRA,Minas Gerais,,53860.0,1076017914,tres pontas
São Francisco do Sul,Sao Francisco Do Sul,-26.2428,-48.6378,Brazil,BR,BRA,Santa Catarina,,53746.0,1076452788,sao francisco do sul
São Francisco,Sao Francisco,-15.9489,-44.8639,Brazil,BR,BRA,Minas Gerais,,53828.0,1076643491,sao francisco
Porto Feliz,Porto Feliz,-23.215,-47.5239,Brazil,BR,BRA,São Paulo,,53402.0,1076231459,porto feliz
Frutal,Frutal,-20.025,-48.9408,Brazil,BR,BRA,Minas Gerais,,53468.0,1076112857,frutal
Pirapora,Pirapora,-17.3478,-44.9436,Brazil,BR,BRA,Minas Gerais,,53368.0,1076124834,pirapora
Olímpia,Olimpia,-20.7369,-48.915,Brazil,BR,BRA,São Paulo,,53360.0,1076866347,olimpia
Santo Estêvão,Santo Estevao,-12.43,-39.2508,Brazil,BR,BRA,Bahia,,53269.0,1076902466,santo estevao
Capivari,Capivari,-22.995,-47.5078,Brazil,BR,BRA,São Paulo,,53152.0,1076000098,capivari
São Bento do Una,Sao Bento Do Una,-8.5228,-36.4439,Brazil,BR,BRA,Pernambuco,,53242.0,1076263399,sao bento do una
Canguçu,Cangucu,-31.395,-52.6758,Brazil,BR,BRA,Rio Grande do Sul,,53259.0,1076710867,cangucu
Açu,Acu,-5.5769,-36.9089,Brazil,BR,BRA,Rio Grande do Norte,,53227.0,1076000524,acu
Leopoldina,Leopoldina,-21.5319,-42.6428,Brazil,BR,BRA,Minas Gerais,,53145.0,1076352077,leopoldina
Acopiara,Acopiara,-6.095,-39.4528,Brazil,BR,BRA,Ceará,,53135.0,1076661571,acopiara
Mafra,Mafra,-26.1108,-49.805,Brazil,BR,BRA,Santa Catarina,,52912.0,1076971048,mafra
Mongaguá,Mongagua,-24.0869,-46.6289,Brazil,BR,BRA,São Paulo,,52492.0,1076393935,mongagua
Tutóia,Tutoia,-2.7619,-42.2739,Brazil,BR,BRA,Maranhão,,52788.0,1076696049,tutoia
Canoinhas,Canoinhas,-26.1769,-50.39,Brazil,BR,BRA,Santa Catarina,,52765.0,1076606234,canoinhas
União da Vitória,Uniao Da Vitoria,-26.23,-51.0858,Brazil,BR,BRA,Paraná,,52735.0,1076355618,uniao da vitoria
Capitão Poço,Capitao Poco,-1.745,-47.065,Brazil,BR,BRA,Pará,,52768.0,1076870027,capitao poco
Granja,Granja,-3.12,-40.8258,Brazil,BR,BRA,Ceará,,52645.0,1076052166,granja
Caetité,Caetite,-14.0689,-42.475,Brazil,BR,BRA,Bahia,,52531.0,1076209772,caetite
Boa Viagem,Boa Viagem,-5.1278,-39.7319,Brazil,BR,BRA,Ceará,,52498.0,1076584216,boa viagem
Marechal Deodoro,Marechal Deodoro,-9.71,-35.895,Brazil,BR,BRA,Alagoas,,52260.0,1076794934,marechal deodoro
Sapé,Sape,-7.095,-35.2328,Brazil,BR,BRA,Paraíba,,52218.0,1076665410,sape
Naviraí,Navirai,-23.065,-54.1908,Brazil,BR,BRA,Mato Grosso do Sul,,52367.0,1076724628,navirai
Delmiro Gouveia,Delmiro Gouveia,-9.3858,-37.9958,Brazil,BR,BRA,Alagoas,,52262.0,1076057826,delmiro gouveia
Portel,Portel,-1.9358,-50.8208,Brazil,BR,BRA,Pará,,52172.0,1076977846,portel
Buíque,Buique,-8.6233,-37.1564,Brazil,BR,BRA,Pernambuco,,52105.0,1076865556,buique
Parobé,Parobe,-29.6289,-50.835,Brazil,BR,BRA,Rio Grande do Sul,,51502.0,1076852725,parobe
Itupiranga,Itupiranga,-5.135,-49.3269,Brazil,BR,BRA,Pará,,51806.0,1076086545,itupiranga
Campo Belo,Campo Belo,-20.8969,-45.2769,Brazil,BR,BRA,Minas Gerais,,51544.0,1076477943,campo belo
Guapimirim,Guapimirim,-22.5369,-42.9819,Brazil,BR,BRA,Rio de Janeiro,,51483.0,1076569522,guapimirim
São Miguel do Guamá,Sao Miguel Do Guama,-1.6269,-47.4828,Brazil,BR,BRA,Pará,,51567.0,1076315330,sao miguel do guama
Pau d’Alho,Pau D'Alho,-7.8969,-35.18,Brazil,BR,BRA,Pernambuco,,51357.0,1076432442,pau d'alho
Ribeira do Pombal,Ribeira Do Pombal,-10.8339,-38.5358,Brazil,BR,BRA,Bahia,,51418.0,1076251379,ribeira do pombal
Trairi,Trairi,-3.2778,-39.2689,Brazil,BR,BRA,Ceará,,51422.0,1076680878,trairi
Humaitá,Humaita,-7.5061,-63.0208,Brazil,BR,BRA,Amazonas,,51302.0,1076798064,humaita
Timbaúba,Timbauba,-7.505,-35.3178,Brazil,BR,BRA,Pernambuco,,50956.0,1076430214,timbauba
Campos do Jordão,Campos Do Jordao,-22.7394,-45.5914,Brazil,BR,BRA,São Paulo,,50852.0,1076353308,campos do jordao
Pontal,Pontal,-21.0225,-48.0372,Brazil,BR,BRA,São Paulo,,50852.0,1076651635,pontal
Louveira,Louveira,-23.0864,-46.9506,Brazil,BR,BRA,São Paulo,,49993.0,1076393293,louveira
Santiago,Santiago,-29.1919,-54.8669,Brazil,BR,BRA,Rio Grande do Sul,,50635.0,1076821990,santiago
Artur Nogueira,Artur Nogueira,-22.5731,-47.1725,Brazil,BR,BRA,São Paulo,,50246.0,1076283170,artur nogueira
Macaúbas,Macaubas,-13.0189,-42.6989,Brazil,BR,BRA,Bahia,,50262.0,1076955429,macaubas
São Joaquim da Barra,Sao Joaquim Da Barra,-20.5808,-47.855,Brazil,BR,BRA,São Paulo,,50110.0,1076321926,sao joaquim da barra
Alta Floresta,Alta Floresta,-9.8758,-56.0858,Brazil,BR,BRA,Mato Grosso,,50189.0,1076069666,alta floresta
Cerquilho Velho,Cerquilho Velho,-23.165,-47.7436,Brazil,BR,BRA,São Paulo,,49802.0,1076117670,cerquilho velho
Vargem Grande Paulista,Vargem Grande Paulista,-23.6028,-47.0258,Brazil,BR,BRA,São Paulo,,48720.0,1076840914,vargem grande paulista
Itararé,Itarare,-24.1125,-49.3317,Brazil,BR,BRA,São Paulo,,50105.0,1076167358,itarare
Guaxupé,Guaxupe,-21.305,-46.7128,Brazil,BR,BRA,Minas Gerais,,49430.0,1076985230,guaxupe
Vargem Grande,Vargem Grande,-3.5428,-43.9158,Brazil,BR,BRA,Maranhão,,49412.0,1076198686,vargem grande
Beberibe,Beberibe,-4.18,-38.1308,Brazil,BR,BRA,Ceará,,49311.0,1076290701,beberibe
Óbidos,Obidos,-1.9178,-55.5178,Brazil,BR,BRA,Pará,,49333.0,1076197849,obidos
Porto Nacional,Porto Nacional,-10.7078,-48.4169,Brazil,BR,BRA,Tocantins,,49146.0,1076043090,porto nacional
Jales,Jales,-20.2689,-50.5458,Brazil,BR,BRA,São Paulo,,48922.0,1076132660,jales
Iranduba,Iranduba,-3.285,-60.1886,Brazil,BR,BRA,Amazonas,,49011.0,1076838918,iranduba
Pedreira,Pedreira,-22.7419,-46.9014,Brazil,BR,BRA,São Paulo,,48463.0,1076000574,pedreira
Prudentópolis,Prudentopolis,-25.2128,-50.9778,Brazil,BR,BRA,Paraná,,48792.0,1076128798,prudentopolis
Poções,Pocoes,-14.53,-40.365,Brazil,BR,BRA,Bahia,,48729.0,1076994566,pocoes
Congonhas,Congonhas,-20.5,-43.8578,Brazil,BR,BRA,Minas Gerais,,48519.0,1076164621,congonhas
Itapagé,Itapage,-3.6869,-39.5858,Brazil,BR,BRA,Ceará,,48350.0,1076504181,itapage
Ibiporã,Ibipora,-23.2689,-51.0478,Brazil,BR,BRA,Paraná,,48198.0,1076663417,ibipora
Xique-Xique,Xique-Xique,-10.8229,-42.7281,Brazil,BR,BRA,Bahia,,48316.0,1076763009,xique-xique
Inhumas,Inhumas,-16.3578,-49.4958,Brazil,BR,BRA,Goiás,,48246.0,1076130930,inhumas
Rio Grande da Serra,Rio Grande Da Serra,-23.7439,-46.3978,Brazil,BR,BRA,São Paulo,,48302.0,1076473006,rio grande da serra
Tobias Barreto,Tobias Barreto,-11.1839,-37.9978,Brazil,BR,BRA,Sergipe,,48040.0,1076875751,tobias barreto
Santa Cruz do Rio Pardo,Santa Cruz Do Rio Pardo,-22.8989,-49.6328,Brazil,BR,BRA,São Paulo,,47943.0,1076453060,santa cruz do rio pardo
Diamantina,Diamantina,-18.2489,-43.6,Brazil,BR,BRA,Minas Gerais,,47952.0,1076865092,diamantina
Santana do Ipanema,Santana Do Ipanema,-9.3778,-37.245,Brazil,BR,BRA,Alagoas,,47820.0,1076732680,santana do ipanema
Vigia,Vigia,-0.8578,-48.1419,Brazil,BR,BRA,Pará,,47889.0,1076728432,vigia
Ipiaú,Ipiau,-14.1369,-39.7339,Brazil,BR,BRA,Bahia,,47501.0,1076023933,ipiau
Capão Bonito,Capao Bonito,-24.0058,-48.3494,Brazil,BR,BRA,São Paulo,,47486.0,1076334908,capao bonito
Atalaia,Atalaia,-9.5019,-36.0228,Brazil,BR,BRA,Alagoas,,47365.0,1076630141,atalaia
Paracambi,Paracambi,-22.6108,-43.7089,Brazil,BR,BRA,Rio de Janeiro,,47124.0,1076624588,paracambi
Aquidauana,Aquidauana,-20.4708,-55.7869,Brazil,BR,BRA,Mato Grosso do Sul,,47323.0,1076120417,aquidauana
Videira,Videira,-27.0078,-51.1519,Brazil,BR,BRA,Santa Catarina,,47188.0,1076188514,videira
Dracena,Dracena,-21.4825,-51.5328,Brazil,BR,BRA,São Paulo,,47043.0,1076313481,dracena
Guajará-Mirim,Guajara-Mirim,-10.7828,-65.3394,Brazil,BR,BRA,Rondônia,,47048.0,1076692558,guajara-mirim
Rondon do Pará,Rondon Do Para,-4.7758,-48.0669,Brazil,BR,BRA,Tocantins,,46964.0,1076892918,rondon do para
Cornélio Procópio,Cornelio Procopio,-23.1808,-50.6469,Brazil,BR,BRA,Paraná,,46928.0,1076363529,cornelio procopio
Lábrea,Labrea,-7.2589,-64.7978,Brazil,BR,BRA,Amazonas,,46882.0,1076619739,labrea
Marechal Cândido Rondon,Marechal Candido Rondon,-24.5558,-54.0569,Brazil,BR,BRA,Paraná,,46819.0,1076891164,marechal candido rondon
Coelho Neto,Coelho Neto,-4.2569,-43.0128,Brazil,BR,BRA,Maranhão,,46750.0,1076316612,coelho neto
Cabreúva,Cabreuva,-23.3075,-47.1331,Brazil,BR,BRA,São Paulo,,46528.0,1076162837,cabreuva
Bocaiúva,Bocaiuva,-17.1078,-43.815,Brazil,BR,BRA,Minas Gerais,,46654.0,1076639320,bocaiuva
Eusébio,Eusebio,-3.89,-38.4508,Brazil,BR,BRA,Ceará,,46033.0,1076187536,eusebio
Cristalina,Cristalina,-16.7689,-47.6139,Brazil,BR,BRA,Goiás,,46580.0,1076014539,cristalina
Itapema,Itapema,-27.09,-48.6108,Brazil,BR,BRA,Santa Catarina,,45797.0,1076653025,itapema
Sena Madureira,Sena Madureira,-9.0658,-68.6569,Brazil,BR,BRA,Acre,,46511.0,1076899075,sena madureira
Conceição do Araguaia,Conceicao Do Araguaia,-8.2578,-49.265,Brazil,BR,BRA,Pará,,46485.0,1076224782,conceicao do araguaia
São Gabriel da Cachoeira,Sao Gabriel Da Cachoeira,-0.13,-67.0889,Brazil,BR,BRA,Amazonas,,46303.0,1076863074,sao gabriel da cachoeira
Laguna,Laguna,-28.4828,-48.7808,Brazil,BR,BRA,Santa Catarina,,46122.0,1076025747,laguna
Mairinque,Mairinque,-23.5464,-47.1836,Brazil,BR,BRA,São Paulo,,46015.0,1076990000,mairinque
Maragogipe,Maragogipe,-12.7778,-38.9189,Brazil,BR,BRA,Bahia,,46106.0,1076474180,maragogipe
Nova Venécia,Nova Venecia,-18.7108,-40.4008,Brazil,BR,BRA,Espírito Santo,,46031.0,1076770793,nova venecia
Lagoa da Prata,Lagoa Da Prata,-20.0228,-45.5439,Brazil,BR,BRA,Minas Gerais,,45984.0,1076652644,lagoa da prata
Livramento de Nossa Senhora,Livramento De Nossa Senhora,-13.6428,-41.8408,Brazil,BR,BRA,Bahia,,46035.0,1076781145,livramento de nossa senhora
Salto de Pirapora,Salto De Pirapora,-23.6489,-47.5728,Brazil,BR,BRA,São Paulo,,45860.0,1076664356,salto de pirapora
Paraguaçu Paulista,Paraguacu Paulista,-22.4197,-50.5797,Brazil,BR,BRA,São Paulo,,45945.0,1076783045,paraguacu paulista
Mata de São João,Mata De Sao Joao,-12.53,-38.2989,Brazil,BR,BRA,Bahia,,45813.0,1076397945,mata de sao joao
Monte Carmelo,Monte Carmelo,-18.725,-47.4989,Brazil,BR,BRA,Minas Gerais,,45772.0,1076821086,monte carmelo
São Sebastião do Passé,Sao Sebastiao Do Passe,-12.5128,-38.495,Brazil,BR,BRA,Bahia,,45482.0,1076114287,sao sebastiao do passe
Bom Conselho,Bom Conselho,-9.17,-36.68,Brazil,BR,BRA,Pernambuco,,45503.0,1076382698,bom conselho
Itabirito,Itabirito,-20.2528,-43.8008,Brazil,BR,BRA,Minas Gerais,,45449.0,1076709831,itabirito
Mamanguape,Mamanguape,-6.8389,-35.1258,Brazil,BR,BRA,Paraíba,,45136.0,1076012570,mamanguape
João Pinheiro,Joao Pinheiro,-17.7442,-46.1739,Brazil,BR,BRA,Minas Gerais,,45260.0,1076899445,joao pinheiro
Brejo Santo,Brejo Santo,-7.4928,-38.985,Brazil,BR,BRA,Ceará,,45193.0,1076816163,brejo santo
Brejo da Madre de Deus,Brejo Da Madre De Deus,-8.1458,-36.3708,Brazil,BR,BRA,Pernambuco,,45180.0,1076440699,brejo da madre de deus
Seabra,Seabra,-12.4189,-41.77,Brazil,BR,BRA,Bahia,,45202.0,1076253764,seabra
Campo Maior,Campo Maior,-4.8278,-42.1689,Brazil,BR,BRA,Piauí,,45177.0,1076002814,campo maior
Tremembé,Tremembe,-22.9578,-45.5489,Brazil,BR,BRA,São Paulo,,44912.0,1076329982,tremembe
Pederneiras,Pederneiras,-22.3517,-48.775,Brazil,BR,BRA,São Paulo,,44910.0,1076724688,pederneiras
Baião,Baiao,-2.7908,-49.6719,Brazil,BR,BRA,Pará,,44956.0,1076566352,baiao
Lapa,Lapa,-25.77,-49.7158,Brazil,BR,BRA,Paraná,,44932.0,1076904800,lapa
Marau,Marau,-28.4489,-52.2,Brazil,BR,BRA,Rio Grande do Sul,,44858.0,1076572640,marau
Barras,Barras,-4.2469,-42.2958,Brazil,BR,BRA,Piauí,,44850.0,1076766658,barras
Uruará,Uruara,-3.7178,-53.7369,Brazil,BR,BRA,Pará,,44789.0,1076931265,uruara
Presidente Dutra,Presidente Dutra,-5.29,-44.49,Brazil,BR,BRA,Alagoas,,44731.0,1076660845,presidente dutra
Garça,Garca,-22.2153,-49.6511,Brazil,BR,BRA,São Paulo,,44532.0,1076270928,garca
Ribeirão,Ribeirao,-8.5139,-35.3778,Brazil,BR,BRA,Pernambuco,,44439.0,1076626596,ribeirao
Paraíso do Tocantins,Paraiso Do Tocantins,-10.1758,-48.8669,Brazil,BR,BRA,Tocantins,,44417.0,1076928889,paraiso do tocantins
São Benedito,Sao Benedito,-4.0489,-40.865,Brazil,BR,BRA,Ceará,,44178.0,1076599736,sao benedito
Mauriti,Mauriti,-7.3889,-38.7739,Brazil,BR,BRA,Ceará,,44240.0,1076467166,mauriti
Xanxerê,Xanxere,-26.8769,-52.4039,Brazil,BR,BRA,Santa Catarina,,44128.0,1076871308,xanxere
Panambi,Panambi,-28.2928,-53.5019,Brazil,BR,BRA,Rio Grande do Sul,,44128.0,1076541369,panambi
Maracaju,Maracaju,-21.6139,-55.1678,Brazil,BR,BRA,Mato Grosso do Sul,,44042.0,1076548335,maracaju
Pinhal,Pinhal,-22.1908,-46.7408,Brazil,BR,BRA,São Paulo,,43897.0,1076552956,pinhal
Presidente Epitácio,Presidente Epitacio,-21.7633,-52.1156,Brazil,BR,BRA,São Paulo,,43535.0,1076557618,presidente epitacio
Pontes e Lacerda,Pontes E Lacerda,-15.2258,-59.335,Brazil,BR,BRA,Mato Grosso,,43538.0,1076490162,pontes e lacerda
Estância Velha,Estancia Velha,-29.6478,-51.1739,Brazil,BR,BRA,Rio Grande do Sul,,42574.0,1076521402,estancia velha
Nova Viçosa,Nova Vicosa,-17.8919,-39.3719,Brazil,BR,BRA,Bahia,,43216.0,1076116919,nova vicosa
Quirinópolis,Quirinopolis,-18.4478,-50.4519,Brazil,BR,BRA,Goiás,,43220.0,1076793896,quirinopolis
São Lourenço do Sul,Sao Lourenco Do Sul,-31.365,-51.9778,Brazil,BR,BRA,Rio Grande do Sul,,43111.0,1076758883,sao lourenco do sul
Entre Rios,Entre Rios,-11.9419,-38.0839,Brazil,BR,BRA,Bahia,,43006.0,1076914935,entre rios
Orlândia,Orlandia,-20.7203,-47.8867,Brazil,BR,BRA,São Paulo,,42678.0,1076690245,orlandia
Vera Cruz,Vera Cruz,-12.96,-38.6089,Brazil,BR,BRA,Bahia,,42650.0,1076136150,vera cruz
Santa Quitéria,Santa Quiteria,-4.3319,-40.1569,Brazil,BR,BRA,Ceará,,42763.0,1076565535,santa quiteria
Santo Antônio da Platina,Santo Antonio Da Platina,-23.295,-50.0769,Brazil,BR,BRA,Paraná,,42707.0,1076118147,santo antonio da platina
Mombaça,Mombaca,-5.7428,-39.6278,Brazil,BR,BRA,Piauí,,42690.0,1076957950,mombaca
Currais Novos,Currais Novos,-6.2608,-36.515,Brazil,BR,BRA,Rio Grande do Norte,,42652.0,1076200389,currais novos
União,Uniao,-4.5858,-42.8639,Brazil,BR,BRA,Piauí,,42654.0,1076941290,uniao
Araioses,Araioses,-2.89,-41.9028,Brazil,BR,BRA,Maranhão,,42505.0,1076312210,araioses
Capão da Canoa,Capao Da Canoa,-29.7608,-50.03,Brazil,BR,BRA,Rio Grande do Sul,,42040.0,1076749939,capao da canoa
São Lourenço,Sao Lourenco,-22.1158,-45.0539,Brazil,BR,BRA,Minas Gerais,,41657.0,1076261938,sao lourenco
Itápolis,Itapolis,-21.5958,-48.8128,Brazil,BR,BRA,São Paulo,,42343.0,1076174719,itapolis
Niquelândia,Niquelandia,-14.4739,-48.46,Brazil,BR,BRA,Goiás,,42361.0,1076682103,niquelandia
Porangatu,Porangatu,-13.4408,-49.1489,Brazil,BR,BRA,Goiás,,42355.0,1076806104,porangatu
Remanso,Remanso,-9.6219,-42.0808,Brazil,BR,BRA,Bahia,,42275.0,1076051035,remanso
Sidrolândia,Sidrolandia,-20.9319,-54.9608,Brazil,BR,BRA,Mato Grosso do Sul,,42132.0,1076992570,sidrolandia
Amontada,Amontada,-3.3608,-39.8308,Brazil,BR,BRA,Ceará,,42098.0,1076240159,amontada
Vargem Grande do Sul,Vargem Grande Do Sul,-21.8319,-46.8939,Brazil,BR,BRA,São Paulo,,41807.0,1076083512,vargem grande do sul
Medianeira,Medianeira,-25.295,-54.0939,Brazil,BR,BRA,Paraná,,41817.0,1076066608,medianeira
Pedra Branca,Pedra Branca,-5.4539,-39.7169,Brazil,BR,BRA,Ceará,,41890.0,1076190370,pedra branca
Jaraguá,Jaragua,-15.7569,-49.3339,Brazil,BR,BRA,Goiás,,41870.0,1076016135,jaragua
Jardinópolis,Jardinopolis,-21.0178,-47.7639,Brazil,BR,BRA,São Paulo,,41799.0,1076497660,jardinopolis
Tramandaí,Tramandai,-29.985,-50.1339,Brazil,BR,BRA,Rio Grande do Sul,,41585.0,1076409044,tramandai
Santa Maria da Vitória,Santa Maria Da Vitoria,-13.3978,-44.1978,Brazil,BR,BRA,Bahia,,41795.0,1076607443,santa maria da vitoria
Borba,Borba,-4.3878,-59.5939,Brazil,BR,BRA,Amazonas,,41748.0,1076143096,borba
Paranaíba,Paranaiba,-19.6769,-51.1908,Brazil,BR,BRA,Mato Grosso do Sul,,41626.0,1076355277,paranaiba
Almenara,Almenara,-16.1005,-40.7101,Brazil,BR,BRA,Minas Gerais,,41552.0,1076953924,almenara
Morrinhos,Morrinhos,-17.7319,-49.1008,Brazil,BR,BRA,Goiás,,41460.0,1076391164,morrinhos
Novo Horizonte,Novo Horizonte,-21.4678,-49.2208,Brazil,BR,BRA,São Paulo,,41414.0,1076842025,novo horizonte
Girau do Ponciano,Girau Do Ponciano,-9.8839,-36.8289,Brazil,BR,BRA,Alagoas,,41237.0,1076704674,girau do ponciano
São Mateus do Sul,Sao Mateus Do Sul,-25.8739,-50.3828,Brazil,BR,BRA,Paraná,,41257.0,1076883402,sao mateus do sul
São Manuel,Sao Manuel,-22.7308,-48.5708,Brazil,BR,BRA,São Paulo,,41123.0,1076604538,sao manuel
Paraíba do Sul,Paraiba Do Sul,-22.1619,-43.2928,Brazil,BR,BRA,Rio de Janeiro,,41084.0,1076715765,paraiba do sul
Jeremoabo,Jeremoabo,-10.0669,-38.35,Brazil,BR,BRA,Bahia,,41100.0,1076509996,jeremoabo
Mucuri,Mucuri,-18.0858,-39.5508,Brazil,BR,BRA,Bahia,,41068.0,1076403815,mucuri
Dois Vizinhos,Dois Vizinhos,-25.75,-53.0569,Brazil,BR,BRA,Paraná,,41038.0,1076157751,dois vizinhos
Osório,Osorio,-29.8869,-50.27,Brazil,BR,BRA,Rio Grande do Sul,,40906.0,1076367566,osorio
Inhambupe,Inhambupe,-11.7839,-38.3528,Brazil,BR,BRA,Bahia,,40915.0,1076169385,inhambupe
Barreiros,Barreiros,-8.8167,-35.2,Brazil,BR,BRA,Pernambuco,,40732.0,1076661261,barreiros
Mangaratiba,Mangaratiba,-22.96,-44.0408,Brazil,BR,BRA,Rio de Janeiro,,40779.0,1076292553,mangaratiba
Promissão,Promissao,-21.5369,-49.8583,Brazil,BR,BRA,São Paulo,,40828.0,1076199684,promissao
Rio Real,Rio Real,-11.4833,-37.9344,Brazil,BR,BRA,Bahia,,40809.0,1076770840,rio real
Caeté,Caete,-19.88,-43.67,Brazil,BR,BRA,Minas Gerais,,40750.0,1076979149,caete
São Bento,Sao Bento,-2.6958,-44.8208,Brazil,BR,BRA,Maranhão,,40736.0,1076246119,sao bento
Barra de São Francisco,Barra De Sao Francisco,-18.755,-40.8908,Brazil,BR,BRA,Espírito Santo,,40649.0,1076442914,barra de sao francisco
Nanuque,Nanuque,-17.8389,-40.3539,Brazil,BR,BRA,Minas Gerais,,40665.0,1076083471,nanuque
Santo Antônio de Pádua,Santo Antonio De Padua,-21.5389,-42.18,Brazil,BR,BRA,Rio de Janeiro,,40589.0,1076879205,santo antonio de padua
Xinguara,Xinguara,-7.095,-49.9458,Brazil,BR,BRA,Pará,,40573.0,1076290442,xinguara
Augusto Correa,Augusto Correa,-1.0219,-46.645,Brazil,BR,BRA,Pará,,40497.0,1076227930,augusto correa
Andradas,Andradas,-22.0678,-46.5689,Brazil,BR,BRA,Minas Gerais,,40407.0,1076414147,andradas
Sirinhaém,Sirinhaem,-8.5908,-35.1158,Brazil,BR,BRA,Pernambuco,,40296.0,1076674219,sirinhaem
Imbituba,Imbituba,-28.24,-48.67,Brazil,BR,BRA,Santa Catarina,,40170.0,1076391605,imbituba
Tietê,Tiete,-23.1019,-47.715,Brazil,BR,BRA,São Paulo,,40194.0,1076154000,tiete
Águas Belas,Aguas Belas,-9.1167,-37.1167,Brazil,BR,BRA,Pernambuco,,40235.0,1076330876,aguas belas
Tarauacá,Tarauaca,-8.1608,-70.7658,Brazil,BR,BRA,Acre,,40024.0,1076894557,tarauaca
Pojuca,Pojuca,-12.3659,-38.2433,Brazil,BR,BRA,Bahia,,39972.0,1076704575,pojuca
São José de Mipibu,Sao Jose De Mipibu,-6.075,-35.2378,Brazil,BR,BRA,Rio Grande do Norte,,39776.0,1076063132,sao jose de mipibu
Rio Negrinho,Rio Negrinho,-26.2539,-49.5178,Brazil,BR,BRA,Santa Catarina,,39846.0,1076110694,rio negrinho
Guaíra,Guaira,-20.3178,-48.3108,Brazil,BR,BRA,São Paulo,,39813.0,1076361005,guaira
Santo Antônio,Santo Antonio,-29.8178,-50.52,Brazil,BR,BRA,Rio Grande do Sul,,39685.0,1076978577,santo antonio
Socorro,Socorro,-22.5908,-46.5289,Brazil,BR,BRA,São Paulo,,39565.0,1076716761,socorro
Rosário,Rosario,-2.9339,-44.235,Brazil,BR,BRA,Maranhão,,39576.0,1076804900,rosario
Arcos,Arcos,-20.2914,-45.5397,Brazil,BR,BRA,Minas Gerais,,39537.0,1076650376,arcos
Oliveira,Oliveira,-20.6958,-44.8269,Brazil,BR,BRA,Minas Gerais,,39466.0,1076723364,oliveira
Benjamin Constant,Benjamin Constant,-4.3755,-70.0318,Brazil,BR,BRA,Amazonas,,39484.0,1076933556,benjamin constant
Presidente Venceslau,Presidente Venceslau,-21.8761,-51.8439,Brazil,BR,BRA,São Paulo,,39407.0,1076627824,presidente venceslau
Santa Maria da Boa Vista,Santa Maria Da Boa Vista,-8.8089,-39.825,Brazil,BR,BRA,Pernambuco,,39435.0,1076034588,santa maria da boa vista
Canela,Canela,-29.3658,-50.8158,Brazil,BR,BRA,Rio Grande do Sul,,39229.0,1076049094,canela
São Francisco do Conde,Sao Francisco Do Conde,-12.6278,-38.68,Brazil,BR,BRA,Bahia,,39329.0,1076969118,sao francisco do conde
Rosário do Sul,Rosario Do Sul,-30.2578,-54.9139,Brazil,BR,BRA,Rio Grande do Sul,,39314.0,1076900712,rosario do sul
Salinas,Salinas,-16.1185,-42.174,Brazil,BR,BRA,Minas Gerais,,39178.0,1076633358,salinas
Jacarèzinho,Jacarezinho,-23.1608,-49.9689,Brazil,BR,BRA,Paraná,,39121.0,1076955757,jacarezinho
Tuntum,Tuntum,-5.2578,-44.6489,Brazil,BR,BRA,Maranhão,,39183.0,1076818343,tuntum
Colinas,Colinas,-6.0258,-44.2489,Brazil,BR,BRA,Maranhão,,39132.0,1076657010,colinas
São Mateus do Maranhão,Sao Mateus Do Maranhao,-4.04,-44.47,Brazil,BR,BRA,Maranhão,,39093.0,1076550429,sao mateus do maranhao
Santa Helena,Santa Helena,-2.2308,-45.3,Brazil,BR,BRA,Maranhão,,39110.0,1076790462,santa helena
Itabaianinha,Itabaianinha,-11.2739,-37.79,Brazil,BR,BRA,Sergipe,,38910.0,1076633750,itabaianinha
Altos,Altos,-5.0389,-42.4608,Brazil,BR,BRA,Piauí,,38822.0,1076874326,altos
Campina Grande do Sul,Campina Grande Do Sul,-25.3058,-49.055,Brazil,BR,BRA,Paraná,,38769.0,1076807751,campina grande do sul
Simão Dias,Simao Dias,-10.7378,-37.8108,Brazil,BR,BRA,Sergipe,,38702.0,1076449666,simao dias
Guariba,Guariba,-21.36,-48.2283,Brazil,BR,BRA,São Paulo,,38499.0,1076624279,guariba
Muaná,Muana,-1.5278,-49.2169,Brazil,BR,BRA,Pará,,38616.0,1076581165,muana
Boa Esperança,Boa Esperanca,-21.09,-45.5658,Brazil,BR,BRA,Minas Gerais,,38516.0,1076371124,boa esperanca
Itiúba,Itiuba,-10.6908,-39.8528,Brazil,BR,BRA,Bahia,,38492.0,1076953529,itiuba
Américo Brasiliense,Americo Brasiliense,-21.7361,-48.1114,Brazil,BR,BRA,São Paulo,,38202.0,1076027153,americo brasiliense
Várzea Alegre,Varzea Alegre,-6.7889,-39.2958,Brazil,BR,BRA,Ceará,,38434.0,1076418638,varzea alegre
Curuçá,Curuca,-0.7339,-47.855,Brazil,BR,BRA,Pará,,38391.0,1076098229,curuca
Dom Pedrito,Dom Pedrito,-30.9828,-54.6728,Brazil,BR,BRA,Rio Grande do Sul,,38339.0,1076917608,dom pedrito
Pitangueiras,Pitangueiras,-21.0094,-48.2217,Brazil,BR,BRA,São Paulo,,38211.0,1076000181,pitangueiras
Visconde do Rio Branco,Visconde Do Rio Branco,-21.0103,-42.8406,Brazil,BR,BRA,Minas Gerais,,37942.0,1076854756,visconde do rio branco
Amambaí,Amambai,-23.1039,-55.2258,Brazil,BR,BRA,Mato Grosso do Sul,,38030.0,1076013576,amambai
Catende,Catende,-8.6669,-35.7169,Brazil,BR,BRA,Pernambuco,,37820.0,1076237989,catende
Bom Jardim,Bom Jardim,-7.7958,-35.5869,Brazil,BR,BRA,Pernambuco,,37826.0,1076905890,bom jardim
Amarante do Maranhão,Amarante Do Maranhao,-5.5669,-46.7419,Brazil,BR,BRA,Maranhão,,37932.0,1076306284,amarante do maranhao
Amargosa,Amargosa,-13.03,-39.605,Brazil,BR,BRA,Bahia,,37807.0,1076608607,amargosa
Ipueiras,Ipueiras,-4.5419,-40.7189,Brazil,BR,BRA,Ceará,,37862.0,1076672763,ipueiras
Santa Rita do Sapucaí,Santa Rita Do Sapucai,-22.2519,-45.7028,Brazil,BR,BRA,Minas Gerais,,37754.0,1076403381,santa rita do sapucai
Guaraciaba do Norte,Guaraciaba Do Norte,-4.1669,-40.7478,Brazil,BR,BRA,Ceará,,37775.0,1076780410,guaraciaba do norte
Esperantina,Esperantina,-3.9019,-42.2339,Brazil,BR,BRA,Piauí,,37767.0,1076676231,esperantina
Curitibanos,Curitibanos,-27.2828,-50.5839,Brazil,BR,BRA,Santa Catarina,,37748.0,1076198267,curitibanos
Afuá,Afua,-0.1569,-50.3869,Brazil,BR,BRA,Pará,,37778.0,1076124321,afua
São Gonçalo dos Campos,Sao Goncalo Dos Campos,-12.4328,-38.9669,Brazil,BR,BRA,Bahia,,37554.0,1076071963,sao goncalo dos campos
Bonito,Bonito,-8.47,-35.7289,Brazil,BR,BRA,Pernambuco,,37566.0,1076501019,bonito
Porteirinha,Porteirinha,-15.7428,-43.0278,Brazil,BR,BRA,Minas Gerais,,37627.0,1076606467,porteirinha
Rio Pardo,Rio Pardo,-29.99,-52.3778,Brazil,BR,BRA,Rio Grande do Sul,,37591.0,1076675236,rio pardo
Esplanada,Esplanada,-11.7958,-37.945,Brazil,BR,BRA,Bahia,,37578.0,1076376279,esplanada
Igarapé-Açu,Igarape-Acu,-1.1269,-47.6178,Brazil,BR,BRA,Pará,,37547.0,1076684764,igarape-acu
Salinópolis,Salinopolis,-0.6289,-47.3558,Brazil,BR,BRA,Pará,,37421.0,1076811443,salinopolis
São Fidélis,Sao Fidelis,-21.6458,-41.7469,Brazil,BR,BRA,Rio de Janeiro,,37543.0,1076411461,sao fidelis
Paraty,Paraty,-23.2194,-44.7147,Brazil,BR,BRA,Rio de Janeiro,,37533.0,1076616643,paraty
Aliança,Alianca,-7.6028,-35.2308,Brazil,BR,BRA,Pernambuco,,37415.0,1076773543,alianca
Itarema,Itarema,-2.92,-39.915,Brazil,BR,BRA,Ceará,,37471.0,1076296454,itarema
Pedro II,Pedro Ii,-4.4338,-41.4534,Brazil,BR,BRA,Piauí,,37496.0,1076812228,pedro ii
Itaqui,Itaqui,-29.125,-56.5528,Brazil,BR,BRA,Rio Grande do Sul,,37489.0,1076882439,itaqui
Agudos,Agudos,-22.4739,-48.9836,Brazil,BR,BRA,São Paulo,,37401.0,1076000779,agudos
José de Freitas,Jose De Freitas,-4.7558,-42.5758,Brazil,BR,BRA,Piauí,,37085.0,1076802708,jose de freitas
Timbó,Timbo,-26.8228,-49.2719,Brazil,BR,BRA,Santa Catarina,,36774.0,1076339334,timbo
Autazes,Autazes,-3.5864,-59.1197,Brazil,BR,BRA,Amazonas,,37033.0,1076415677,autazes
Uruaçu,Uruacu,-14.525,-49.1408,Brazil,BR,BRA,Goiás,,36929.0,1076588964,uruacu
Santaluz,Santaluz,-11.2558,-39.375,Brazil,BR,BRA,Bahia,,36915.0,1076830828,santaluz
Pimenta Bueno,Pimenta Bueno,-11.6725,-61.1936,Brazil,BR,BRA,Rondônia,,36881.0,1076267246,pimenta bueno
Lajedo,Lajedo,-8.6639,-36.32,Brazil,BR,BRA,Pernambuco,,36628.0,1076183844,lajedo
Araçuaí,Aracuai,-16.85,-42.07,Brazil,BR,BRA,Minas Gerais,,36712.0,1076501078,aracuai
Barra Bonita,Barra Bonita,-22.4947,-48.5581,Brazil,BR,BRA,São Paulo,,36321.0,1076780548,barra bonita
São Paulo de Olivença,Sao Paulo De Olivenca,-3.45,-68.95,Brazil,BR,BRA,Amazonas,,36536.0,1076704300,sao paulo de olivenca
Aparecida,Aparecida,-22.8472,-45.23,Brazil,BR,BRA,São Paulo,,36217.0,1076806368,aparecida
Santa Helena de Goiás,Santa Helena De Goias,-17.8139,-50.5969,Brazil,BR,BRA,Goiás,,36469.0,1076150197,santa helena de goias
Camamu,Camamu,-13.945,-39.1039,Brazil,BR,BRA,Bahia,,36435.0,1076215451,camamu
Careiro,Careiro,-3.7678,-60.3689,Brazil,BR,BRA,Amazonas,,36435.0,1076439783,careiro
Oeiras,Oeiras,-7.025,-42.1308,Brazil,BR,BRA,Piauí,,36329.0,1076220246,oeiras
São Miguel d’Oeste,Sao Miguel D'Oeste,-26.725,-53.5178,Brazil,BR,BRA,Santa Catarina,,36306.0,1076717099,sao miguel d'oeste
Paiçandu,Paicandu,-23.4578,-52.0489,Brazil,BR,BRA,Paraná,,35936.0,1076005300,paicandu
Itaitinga,Itaitinga,-3.9689,-38.5278,Brazil,BR,BRA,Ceará,,35817.0,1076730632,itaitinga
Itapicuru,Itapicuru,-11.3169,-38.2328,Brazil,BR,BRA,Bahia,,35987.0,1076288432,itapicuru
Fraiburgo,Fraiburgo,-27.0258,-50.9208,Brazil,BR,BRA,Santa Catarina,,35942.0,1076662614,fraiburgo
Santa Cruz,Santa Cruz,-6.2289,-36.0228,Brazil,BR,BRA,Rio Grande do Norte,,35797.0,1076706078,santa cruz
Estreito,Estreito,-6.5608,-47.4508,Brazil,BR,BRA,Maranhão,,35835.0,1076867067,estreito
Várzea da Palma,Varzea Da Palma,-17.5978,-44.7308,Brazil,BR,BRA,Minas Gerais,,35809.0,1076481562,varzea da palma
Ouro Preto d’Oeste,Ouro Preto D'Oeste,-10.7481,-62.2158,Brazil,BR,BRA,Rondônia,,35737.0,1076571637,ouro preto d'oeste
Garibaldi,Garibaldi,-29.2558,-51.5339,Brazil,BR,BRA,Rio Grande do Sul,,35440.0,1076481816,garibaldi
Bariri,Bariri,-22.0744,-48.7403,Brazil,BR,BRA,São Paulo,,35558.0,1076167446,bariri
Nova Cruz,Nova Cruz,-6.4778,-35.4339,Brazil,BR,BRA,Rio Grande do Norte,,35490.0,1076169350,nova cruz
José Bonifácio,Jose Bonifacio,-21.0528,-49.6878,Brazil,BR,BRA,São Paulo,,35538.0,1076809600,jose bonifacio
Toritama,Toritama,-8.0067,-36.0567,Brazil,BR,BRA,Pernambuco,,35554.0,1076597056,toritama
També,Tambe,-7.41,-35.1128,Brazil,BR,BRA,Pernambuco,,35398.0,1076207007,tambe
Charqueadas,Charqueadas,-29.955,-51.625,Brazil,BR,BRA,Rio Grande do Sul,,35320.0,1076933382,charqueadas
Rio Brilhante,Rio Brilhante,-21.8019,-54.5458,Brazil,BR,BRA,Mato Grosso do Sul,,35465.0,1076414627,rio brilhante
Além Paraíba,Alem Paraiba,-21.8878,-42.7039,Brazil,BR,BRA,Minas Gerais,,35401.0,1076955526,alem paraiba
Bom Jesus do Itabapoana,Bom Jesus Do Itabapoana,-21.1339,-41.68,Brazil,BR,BRA,Rio de Janeiro,,35411.0,1076034658,bom jesus do itabapoana
Pilar,Pilar,-9.5972,-35.9567,Brazil,BR,BRA,Alagoas,,35295.0,1076033888,pilar
Riachão do Jacuípe,Riachao Do Jacuipe,-11.81,-39.3819,Brazil,BR,BRA,Bahia,,35403.0,1076945082,riachao do jacuipe
Pilão Arcado,Pilao Arcado,-10.0018,-42.483,Brazil,BR,BRA,Bahia,,35428.0,1076876998,pilao arcado
Pentecoste,Pentecoste,-3.7928,-39.27,Brazil,BR,BRA,Ceará,,35400.0,1076355140,pentecoste
Casimiro de Abreu,Casimiro De Abreu,-22.4808,-42.2039,Brazil,BR,BRA,Rio de Janeiro,,35347.0,1076781474,casimiro de abreu
Ouro Branco,Ouro Branco,-20.5208,-43.6919,Brazil,BR,BRA,Minas Gerais,,35268.0,1076485763,ouro branco
Itaberaí,Itaberai,-16.02,-49.81,Brazil,BR,BRA,Goiás,,35371.0,1076044452,itaberai
Guaramirim,Guaramirim,-26.4728,-49.0028,Brazil,BR,BRA,Santa Catarina,,35172.0,1076561116,guaramirim
Cansanção,Cansancao,-10.6708,-39.4978,Brazil,BR,BRA,Bahia,,35235.0,1076743191,cansancao
Massapê,Massape,-3.5228,-40.3428,Brazil,BR,BRA,Ceará,,35191.0,1076000173,massape
Curaçá,Curaca,-8.9919,-39.9078,Brazil,BR,BRA,Bahia,,35208.0,1076762736,curaca
Afogados da Ingazeira,Afogados Da Ingazeira,-7.7508,-37.6342,Brazil,BR,BRA,Pernambuco,,35088.0,1076271045,afogados da ingazeira
Bodocó,Bodoco,-7.7778,-39.9408,Brazil,BR,BRA,Pernambuco,,35158.0,1076358937,bodoco
Igarapé,Igarape,-20.07,-44.3019,Brazil,BR,BRA,Minas Gerais,,34851.0,1076387530,igarape
Nova Olinda do Norte,Nova Olinda Do Norte,-3.8878,-59.0939,Brazil,BR,BRA,Amazonas,,35156.0,1076698345,nova olinda do norte
Adamantina,Adamantina,-21.6847,-51.0733,Brazil,BR,BRA,São Paulo,,35048.0,1076252044,adamantina
Armação dos Búzios,Armacao Dos Buzios,-22.7469,-41.8819,Brazil,BR,BRA,Rio de Janeiro,,34477.0,1076574611,armacao dos buzios
Aguaí,Aguai,-22.0603,-46.9736,Brazil,BR,BRA,São Paulo,,34863.0,1076299565,aguai
Barra do Choça,Barra Do Choca,-14.8808,-40.5789,Brazil,BR,BRA,Bahia,,34853.0,1076410831,barra do choca
Feijó,Feijo,-8.1639,-70.3539,Brazil,BR,BRA,Acre,,34884.0,1076695082,feijo
Tôrres,Torres,-29.335,-49.7269,Brazil,BR,BRA,Rio Grande do Sul,,34656.0,1076421011,torres
Santa Cruz das Palmeiras,Santa Cruz Das Palmeiras,-21.8269,-47.2489,Brazil,BR,BRA,São Paulo,,34737.0,1076200565,santa cruz das palmeiras
Capelinha,Capelinha,-17.6908,-42.5158,Brazil,BR,BRA,Minas Gerais,,34803.0,1076950734,capelinha
Castelo,Castelo,-20.6039,-41.185,Brazil,BR,BRA,Espírito Santo,,34747.0,1076313406,castelo
Apodi,Apodi,-5.6639,-37.7989,Brazil,BR,BRA,Rio Grande do Norte,,34763.0,1076092856,apodi
São Luís do Quitunde,Sao Luis Do Quitunde,-9.3178,-35.5608,Brazil,BR,BRA,Alagoas,,34692.0,1076776614,sao luis do quitunde
Cachoeira,Cachoeira,-12.6178,-38.9558,Brazil,BR,BRA,Bahia,,34535.0,1076370546,cachoeira
Parnarama,Parnarama,-5.6819,-43.0928,Brazil,BR,BRA,Maranhão,,34586.0,1076586563,parnarama
Cícero Dantas,Cicero Dantas,-10.6,-38.3828,Brazil,BR,BRA,Bahia,,34478.0,1076276017,cicero dantas
Iturama,Iturama,-19.7278,-50.1958,Brazil,BR,BRA,Minas Gerais,,34456.0,1076049375,iturama
Vassouras,Vassouras,-22.4039,-43.6628,Brazil,BR,BRA,Rio de Janeiro,,34410.0,1076049981,vassouras
Jaguaribe,Jaguaribe,-5.8908,-38.6219,Brazil,BR,BRA,Ceará,,34409.0,1076039425,jaguaribe
Missão Velha,Missao Velha,-7.25,-39.1428,Brazil,BR,BRA,Ceará,,34274.0,1076844582,missao velha
Penalva,Penalva,-3.2939,-45.1739,Brazil,BR,BRA,Maranhão,,34267.0,1076744863,penalva
São Desidério,Sao Desiderio,-12.3628,-44.9728,Brazil,BR,BRA,Bahia,,34266.0,1076278126,sao desiderio
Goianira,Goianira,-16.4958,-49.4258,Brazil,BR,BRA,Goiás,,34060.0,1076457587,goianira
Cravinhos,Cravinhos,-21.3403,-47.7294,Brazil,BR,BRA,São Paulo,,34110.0,1076465069,cravinhos
Matozinhos,Matozinhos,-19.5578,-44.0808,Brazil,BR,BRA,Minas Gerais,,33955.0,1076626899,matozinhos
Eirunepé,Eirunepe,-6.6597,-69.8744,Brazil,BR,BRA,Amazonas,,34025.0,1076884388,eirunepe
Brumadinho,Brumadinho,-20.1428,-44.2,Brazil,BR,BRA,Minas Gerais,,33973.0,1076272564,brumadinho
Pôrto de Moz,Porto De Moz,-1.7478,-52.2378,Brazil,BR,BRA,Pará,,33956.0,1076963542,porto de moz
Descalvado,Descalvado,-21.9039,-47.6189,Brazil,BR,BRA,São Paulo,,33910.0,1076021755,descalvado
Turiaçu,Turiacu,-1.6628,-45.3719,Brazil,BR,BRA,Maranhão,,33933.0,1076381653,turiacu
Custódia,Custodia,-8.0875,-37.6431,Brazil,BR,BRA,Pernambuco,,33855.0,1076621453,custodia
Sertânia,Sertania,-8.0706,-37.2658,Brazil,BR,BRA,Pernambuco,,33787.0,1076986072,sertania
Poço Redondo,Poco Redondo,-9.8058,-37.685,Brazil,BR,BRA,Sergipe,,33757.0,1076471819,poco redondo
Jaguarari,Jaguarari,-10.26,-40.1958,Brazil,BR,BRA,Bahia,,33746.0,1076470682,jaguarari
Tucumã,Tucuma,-6.7519,-51.1539,Brazil,BR,BRA,Pará,,33690.0,1076697803,tucuma
Ibaté,Ibate,-21.955,-47.9969,Brazil,BR,BRA,São Paulo,,33535.0,1076395966,ibate
Barra do Bugres,Barra Do Bugres,-15.0728,-57.1808,Brazil,BR,BRA,Mato Grosso,,33644.0,1076717726,barra do bugres
São Domingos do Maranhão,Sao Domingos Do Maranhao,-5.5758,-44.385,Brazil,BR,BRA,Maranhão,,33607.0,1076192320,sao domingos do maranhao
Iperó,Ipero,-23.3503,-47.6886,Brazil,BR,BRA,São Paulo,,33367.0,1076747973,ipero
Caçapava do Sul,Cacapava Do Sul,-30.5119,-53.4908,Brazil,BR,BRA,Rio Grande do Sul,,33548.0,1076550820,cacapava do sul
Pôrto União,Porto Uniao,-26.2378,-51.0778,Brazil,BR,BRA,Santa Catarina,,33493.0,1076057988,porto uniao
Bôca do Acre,Boca Do Acre,-8.7519,-67.3978,Brazil,BR,BRA,Amazonas,,33498.0,1076558816,boca do acre
Baturité,Baturite,-4.3289,-38.885,Brazil,BR,BRA,Ceará,,33321.0,1076144455,baturite
Brejo,Brejo,-3.6839,-42.75,Brazil,BR,BRA,Maranhão,,33359.0,1076010144,brejo
Conceição de Jacuípe,Conceicao De Jacuipe,-12.3269,-38.765,Brazil,BR,BRA,Bahia,,33354.0,1076309231,conceicao de jacuipe
São Luís Gonzaga,Sao Luis Gonzaga,-28.4078,-54.9608,Brazil,BR,BRA,Rio Grande do Sul,,33293.0,1076320357,sao luis gonzaga
Canavieiras,Canavieiras,-15.675,-38.9469,Brazil,BR,BRA,Bahia,,33268.0,1076258532,canavieiras
Almeirim,Almeirim,-1.5228,-52.5819,Brazil,BR,BRA,Pará,,33282.0,1076655786,almeirim
Camacan,Camacan,-15.4189,-39.4958,Brazil,BR,BRA,Bahia,,33197.0,1076604615,camacan
Coxim,Coxim,-18.5069,-54.76,Brazil,BR,BRA,Mato Grosso do Sul,,33231.0,1076196665,coxim
Correntina,Correntina,-13.3428,-44.6369,Brazil,BR,BRA,Bahia,,33183.0,1076400445,correntina
Água Preta,Agua Preta,-8.7,-35.35,Brazil,BR,BRA,Pernambuco,,33095.0,1076495726,agua preta
Palmeira das Missões,Palmeira Das Missoes,-27.8989,-53.3139,Brazil,BR,BRA,Rio Grande do Sul,,33131.0,1076243689,palmeira das missoes
Rio das Pedras,Rio Das Pedras,-22.8428,-47.6058,Brazil,BR,BRA,São Paulo,,32982.0,1076199521,rio das pedras
Biritiba-Mirim,Biritiba-Mirim,-23.5728,-46.0389,Brazil,BR,BRA,São Paulo,,32936.0,1076510731,biritiba-mirim
Maragogi,Maragogi,-9.0122,-35.2225,Brazil,BR,BRA,Alagoas,,32940.0,1076984582,maragogi
Osvaldo Cruz,Osvaldo Cruz,-21.7967,-50.8786,Brazil,BR,BRA,São Paulo,,33000.0,1076438430,osvaldo cruz
Esperança,Esperanca,-7.0333,-35.85,Brazil,BR,BRA,Paraíba,,32785.0,1076765835,esperanca
Gandu,Gandu,-13.7439,-39.4869,Brazil,BR,BRA,Bahia,,32809.0,1076167274,gandu
Curralinho,Curralinho,-1.8139,-49.795,Brazil,BR,BRA,Pará,,32881.0,1076735826,curralinho
Campos Novos,Campos Novos,-27.4019,-51.225,Brazil,BR,BRA,Santa Catarina,,32824.0,1076882483,campos novos
São João da Barra,Sao Joao Da Barra,-21.64,-41.0508,Brazil,BR,BRA,Rio de Janeiro,,32747.0,1076887451,sao joao da barra
Presidente Figueiredo,Presidente Figueiredo,-2.0172,-60.025,Brazil,BR,BRA,Amazonas,,32812.0,1076857891,presidente figueiredo
Monteiro,Monteiro,-7.8889,-37.12,Brazil,BR,BRA,Paraíba,,32774.0,1076669282,monteiro
São Miguel Arcanjo,Sao Miguel Arcanjo,-23.8778,-47.9969,Brazil,BR,BRA,São Paulo,,32769.0,1076595585,sao miguel arcanjo
Mandaguari,Mandaguari,-23.5478,-51.6708,Brazil,BR,BRA,Paraná,,32658.0,1076000964,mandaguari
Pombal,Pombal,-6.77,-37.8019,Brazil,BR,BRA,Paraíba,,32712.0,1076681392,pombal
Espigão D’Oeste,Espigao D'Oeste,-11.5247,-61.0128,Brazil,BR,BRA,Rondônia,,32695.0,1076120982,espigao d'oeste
Cururupu,Cururupu,-1.8278,-44.8678,Brazil,BR,BRA,Maranhão,,32626.0,1076284280,cururupu
Paratinga,Paratinga,-12.6908,-43.1839,Brazil,BR,BRA,Bahia,,32636.0,1076218209,paratinga
São José do Belmonte,Sao Jose Do Belmonte,-7.8608,-38.76,Brazil,BR,BRA,Pernambuco,,32617.0,1076639958,sao jose do belmonte
Jaguariaíva,Jaguariaiva,-24.2508,-49.7058,Brazil,BR,BRA,Paraná,,32606.0,1076322206,jaguariaiva
Nossa Senhora da Glória,Nossa Senhora Da Gloria,-10.2178,-37.42,Brazil,BR,BRA,Sergipe,,32497.0,1076396481,nossa senhora da gloria
Goiatuba,Goiatuba,-18.0128,-49.3569,Brazil,BR,BRA,Goiás,,32492.0,1076079439,goiatuba
Barreirinha,Barreirinha,-2.8025,-57.0686,Brazil,BR,BRA,Amazonas,,32483.0,1076984519,barreirinha
São José da Tapera,Sao Jose Da Tapera,-9.5578,-37.3808,Brazil,BR,BRA,Alagoas,,32405.0,1076222428,sao jose da tapera
Gramado,Gramado,-29.3789,-50.8739,Brazil,BR,BRA,Rio Grande do Sul,,32273.0,1076167286,gramado
Cachoeira Paulista,Cachoeira Paulista,-22.665,-45.0094,Brazil,BR,BRA,São Paulo,,32294.0,1076563996,cachoeira paulista
Carangola,Carangola,-20.7328,-42.0289,Brazil,BR,BRA,Minas Gerais,,32296.0,1076047833,carangola
Guararapes,Guararapes,-21.2608,-50.6428,Brazil,BR,BRA,São Paulo,,32346.0,1076646816,guararapes
São Raimundo Nonato,Sao Raimundo Nonato,-9.015,-42.6989,Brazil,BR,BRA,Piauí,,32327.0,1076608833,sao raimundo nonato
Miguel Alves,Miguel Alves,-4.1658,-42.895,Brazil,BR,BRA,Piauí,,32289.0,1076086416,miguel alves
Ilhabela,Ilhabela,-23.7778,-45.3578,Brazil,BR,BRA,São Paulo,,32197.0,1076323267,ilhabela
Jaguaruana,Jaguaruana,-4.8339,-37.7808,Brazil,BR,BRA,Ceará,,32236.0,1076906413,jaguaruana
João Câmara,Joao Camara,-5.5378,-35.82,Brazil,BR,BRA,Rio Grande do Norte,,32227.0,1076573306,joao camara
Poconé,Pocone,-16.2569,-56.6228,Brazil,BR,BRA,Mato Grosso,,32205.0,1076449216,pocone
Bandeirantes,Bandeirantes,-23.11,-50.3678,Brazil,BR,BRA,Paraná,,32184.0,1076892563,bandeirantes
Itamarandiba,Itamarandiba,-17.8569,-42.8589,Brazil,BR,BRA,Minas Gerais,,32175.0,1076820842,itamarandiba
Palmeira,Palmeira,-25.4289,-50.0058,Brazil,BR,BRA,Paraná,,32123.0,1076227836,palmeira
Colíder,Colider,-10.8128,-55.455,Brazil,BR,BRA,Mato Grosso,,32120.0,1076780919,colider
Guaratuba,Guaratuba,-25.8828,-48.575,Brazil,BR,BRA,Paraná,,32095.0,1076880478,guaratuba
Gurupá,Gurupa,-1.405,-51.64,Brazil,BR,BRA,Pará,,32049.0,1076469550,gurupa
Marialva,Marialva,-23.485,-51.7919,Brazil,BR,BRA,Paraná,,31959.0,1076544129,marialva
Piuí,Piui,-20.465,-45.9578,Brazil,BR,BRA,Minas Gerais,,31883.0,1076338261,piui
Igrejinha,Igrejinha,-29.5739,-50.79,Brazil,BR,BRA,Rio Grande do Sul,,31660.0,1076637934,igrejinha
Ruy Barbosa,Ruy Barbosa,-12.2839,-40.4939,Brazil,BR,BRA,Bahia,,31867.0,1076207484,ruy barbosa
Domingos Martins,Domingos Martins,-20.3628,-40.6589,Brazil,BR,BRA,Espírito Santo,,31847.0,1076223781,domingos martins
São José do Egito,Sao Jose Do Egito,-7.4733,-37.2744,Brazil,BR,BRA,Pernambuco,,31829.0,1076085111,sao jose do egito
Ubajara,Ubajara,-3.8544,-40.9211,Brazil,BR,BRA,Ceará,,31787.0,1076215653,ubajara
São Gotardo,Sao Gotardo,-19.3108,-46.0489,Brazil,BR,BRA,Minas Gerais,,31819.0,1076795698,sao gotardo
Ivaiporã,Ivaipora,-24.2478,-51.685,Brazil,BR,BRA,Paraná,,31816.0,1076889382,ivaipora
Monção,Moncao,-3.4919,-45.2508,Brazil,BR,BRA,Maranhão,,31738.0,1076424979,moncao
Paracuru,Paracuru,-3.41,-39.0308,Brazil,BR,BRA,Ceará,,31636.0,1076591278,paracuru
Irituia,Irituia,-1.7689,-47.4389,Brazil,BR,BRA,Pará,,31664.0,1076738567,irituia
Exu,Exu,-7.5133,-39.7239,Brazil,BR,BRA,Pernambuco,,31636.0,1076979284,exu
Morro Agudo,Morro Agudo,-20.7314,-48.0578,Brazil,BR,BRA,São Paulo,,31620.0,1076136085,morro agudo
Ouro Fino,Ouro Fino,-22.2828,-46.3689,Brazil,BR,BRA,Minas Gerais,,31568.0,1076007504,ouro fino
Frederico Westphalen,Frederico Westphalen,-27.3589,-53.3939,Brazil,BR,BRA,Rio Grande do Sul,,31498.0,1076744210,frederico westphalen
Santa Fé do Sul,Santa Fe Do Sul,-20.2108,-50.9258,Brazil,BR,BRA,São Paulo,,31348.0,1076177037,santa fe do sul
Araçoiaba da Serra,Aracoiaba Da Serra,-23.5053,-47.6142,Brazil,BR,BRA,São Paulo,,31321.0,1076732508,aracoiaba da serra
Barrinha,Barrinha,-21.1936,-48.1639,Brazil,BR,BRA,São Paulo,,31230.0,1076492454,barrinha
Posse,Posse,-14.0928,-46.3689,Brazil,BR,BRA,Goiás,,31419.0,1076046646,posse
Cândido Mota,Candido Mota,-22.7464,-50.3869,Brazil,BR,BRA,São Paulo,,31346.0,1076335584,candido mota
Araguatins,Araguatins,-5.6508,-48.1239,Brazil,BR,BRA,Tocantins,,31329.0,1076919490,araguatins
Parambu,Parambu,-6.2108,-40.6939,Brazil,BR,BRA,Ceará,,31309.0,1076966523,parambu
Iporá,Ipora,-16.4419,-51.1178,Brazil,BR,BRA,Goiás,,31274.0,1076392298,ipora
Guanhães,Guanhaes,-18.775,-42.9328,Brazil,BR,BRA,Minas Gerais,,31262.0,1076235295,guanhaes
Pindaré-Mirim,Pindare-Mirim,-3.6078,-45.3428,Brazil,BR,BRA,Maranhão,,31152.0,1076752524,pindare-mirim
Vitória do Mearim,Vitoria Do Mearim,-3.4619,-44.8708,Brazil,BR,BRA,Maranhão,,31217.0,1076499667,vitoria do mearim
Brasília de Minas,Brasilia De Minas,-16.2078,-44.4289,Brazil,BR,BRA,Minas Gerais,,31213.0,1076970617,brasilia de minas
Flores da Cunha,Flores Da Cunha,-29.0289,-51.1819,Brazil,BR,BRA,Rio Grande do Sul,,31063.0,1076774323,flores da cunha
Minaçu,Minacu,-13.5328,-48.22,Brazil,BR,BRA,Goiás,,31154.0,1076477797,minacu
Espinosa,Espinosa,-14.9081,-42.8103,Brazil,BR,BRA,Minas Gerais,,31113.0,1076000498,espinosa
Touros,Touros,-5.1989,-35.4608,Brazil,BR,BRA,Rio Grande do Norte,,31089.0,1076875720,touros
Lavras da Mangabeira,Lavras Da Mangabeira,-6.7528,-38.9719,Brazil,BR,BRA,Ceará,,31090.0,1076000532,lavras da mangabeira
Portão,Portao,-29.7019,-51.2419,Brazil,BR,BRA,Rio Grande do Sul,,30920.0,1076512435,portao
Itabela,Itabela,-16.575,-39.5528,Brazil,BR,BRA,Bahia,,31055.0,1076263072,itabela
Muritiba,Muritiba,-12.6258,-38.99,Brazil,BR,BRA,Bahia,,30743.0,1076695612,muritiba
Tijucas,Tijucas,-27.2408,-48.6339,Brazil,BR,BRA,Santa Catarina,,30960.0,1076000713,tijucas
Itapemirim,Itapemirim,-21.0108,-40.8339,Brazil,BR,BRA,Espírito Santo,,30988.0,1076103193,itapemirim
Canguaretama,Canguaretama,-6.38,-35.1289,Brazil,BR,BRA,Rio Grande do Norte,,30916.0,1076516835,canguaretama
Matões,Matoes,-5.5189,-43.1989,Brazil,BR,BRA,Maranhão,,31015.0,1076560860,matoes
Nova Russas,Nova Russas,-4.7,-40.5667,Brazil,BR,BRA,Ceará,,30965.0,1076574955,nova russas
Nazaré da Mata,Nazare Da Mata,-7.7419,-35.2278,Brazil,BR,BRA,Pernambuco,,30796.0,1076588542,nazare da mata
Santa Vitória do Palmar,Santa Vitoria Do Palmar,-33.5189,-53.3678,Brazil,BR,BRA,Rio Grande do Sul,,30990.0,1076114405,santa vitoria do palmar
João Alfredo,Joao Alfredo,-7.8558,-35.5878,Brazil,BR,BRA,Pernambuco,,30743.0,1076231454,joao alfredo
Tanguá,Tangua,-22.73,-42.7139,Brazil,BR,BRA,Rio de Janeiro,,30732.0,1076102758,tangua
Taiobeiras,Taiobeiras,-15.8078,-42.2328,Brazil,BR,BRA,Minas Gerais,,30917.0,1076685590,taiobeiras
Bela Cruz,Bela Cruz,-3.0508,-40.1678,Brazil,BR,BRA,Ceará,,30878.0,1076116893,bela cruz
Cabrobó,Cabrobo,-8.5119,-39.3069,Brazil,BR,BRA,Pernambuco,,30873.0,1076270461,cabrobo
Colinas do Tocantins,Colinas Do Tocantins,-8.0589,-48.475,Brazil,BR,BRA,Tocantins,,30838.0,1076519835,colinas do tocantins
Vicência,Vicencia,-7.6569,-35.3269,Brazil,BR,BRA,Pernambuco,,30732.0,1076853689,vicencia
Capela,Capela,-10.5028,-37.0528,Brazil,BR,BRA,Sergipe,,30761.0,1076554382,capela
Laranjeiras do Sul,Laranjeiras Do Sul,-25.4078,-52.4158,Brazil,BR,BRA,Paraná,,30777.0,1076918166,laranjeiras do sul
Minas Novas,Minas Novas,-17.2189,-42.59,Brazil,BR,BRA,Minas Gerais,,30794.0,1076593448,minas novas
Alegre,Alegre,-20.7639,-41.5328,Brazil,BR,BRA,Espírito Santo,,30768.0,1076514864,alegre
Estrêla,Estrela,-29.5019,-51.9658,Brazil,BR,BRA,Rio Grande do Sul,,30619.0,1076456706,estrela
Jarinu,Jarinu,-23.1014,-46.7283,Brazil,BR,BRA,São Paulo,,30617.0,1076915802,jarinu
Novo Cruzeiro,Novo Cruzeiro,-17.4678,-41.875,Brazil,BR,BRA,Minas Gerais,,30725.0,1076396418,novo cruzeiro
Catolé do Rocha,Catole Do Rocha,-6.3439,-37.7469,Brazil,BR,BRA,Paraíba,,30684.0,1076149254,catole do rocha
Juquitiba,Juquitiba,-23.9319,-47.0686,Brazil,BR,BRA,São Paulo,,30642.0,1076231410,juquitiba
Rio Branco do Sul,Rio Branco Do Sul,-25.19,-49.3139,Brazil,BR,BRA,Paraná,,30650.0,1076759925,rio branco do sul
Rio Preto da Eva,Rio Preto Da Eva,-2.6989,-59.7,Brazil,BR,BRA,Amazonas,,30530.0,1076575566,rio preto da eva
Afonso Cláudio,Afonso Claudio,-20.0739,-41.1239,Brazil,BR,BRA,Espírito Santo,,30455.0,1076232395,afonso claudio
Itaporanga d’Ajuda,Itaporanga D'Ajuda,-10.9978,-37.3108,Brazil,BR,BRA,Sergipe,,30419.0,1076537619,itaporanga d'ajuda
Iguape,Iguape,-24.7081,-47.5553,Brazil,BR,BRA,São Paulo,,30390.0,1076144584,iguape
Carlos Barbosa,Carlos Barbosa,-29.2978,-51.5039,Brazil,BR,BRA,Rio Grande do Sul,,30241.0,1076670550,carlos barbosa
Pinhão,Pinhao,-25.6958,-51.66,Brazil,BR,BRA,Paraná,,30208.0,1076271089,pinhao
Candelária,Candelaria,-29.6689,-52.7889,Brazil,BR,BRA,Rio Grande do Sul,,30171.0,1076542930,candelaria
Paraipaba,Paraipaba,-3.4389,-39.1478,Brazil,BR,BRA,Ceará,,30041.0,1076816341,paraipaba
São Luís de Montes Belos,Sao Luis De Montes Belos,-16.525,-50.3719,Brazil,BR,BRA,Goiás,,30034.0,1076530689,sao luis de montes belos
Soledade,Soledade,-28.8178,-52.51,Brazil,BR,BRA,Rio Grande do Sul,,30044.0,1076105389,soledade
Irará,Irara,-12.05,-38.7669,Brazil,BR,BRA,Bahia,,29950.0,1076945010,irara
Campo Alegre de Lourdes,Campo Alegre De Lourdes,-9.5158,-43.0108,Brazil,BR,BRA,Bahia,,29938.0,1076811887,campo alegre de lourdes
Pitanga,Pitanga,-24.7569,-51.7608,Brazil,BR,BRA,Paraná,,29994.0,1076485533,pitanga
Santana do Acaraú,Santana Do Acarau,-3.4608,-40.2119,Brazil,BR,BRA,Ceará,,29946.0,1076356639,santana do acarau
Carinhanha,Carinhanha,-14.305,-43.765,Brazil,BR,BRA,Bahia,,29955.0,1076985743,carinhanha
Paripiranga,Paripiranga,-10.6878,-37.8619,Brazil,BR,BRA,Bahia,,29878.0,1076083044,paripiranga
Casa Branca,Casa Branca,-21.7739,-47.0858,Brazil,BR,BRA,São Paulo,,29877.0,1076748418,casa branca
Mocajuba,Mocajuba,-2.5839,-49.5069,Brazil,BR,BRA,Pará,,29846.0,1076949250,mocajuba
Capim,Capim,-1.675,-47.775,Brazil,BR,BRA,Pará,,29846.0,1076189438,capim
Igarapava,Igarapava,-20.0383,-47.7469,Brazil,BR,BRA,São Paulo,,29727.0,1076928991,igarapava
Rancharia,Rancharia,-22.2289,-50.8928,Brazil,BR,BRA,São Paulo,,29778.0,1076007180,rancharia
Carmo do Paranaíba,Carmo Do Paranaiba,-19.0008,-46.3158,Brazil,BR,BRA,Minas Gerais,,29735.0,1076039872,carmo do paranaiba
Piraju,Piraju,-23.1936,-49.3839,Brazil,BR,BRA,São Paulo,,29664.0,1076217227,piraju
Matinhos,Matinhos,-25.8178,-48.5428,Brazil,BR,BRA,Paraná,,29428.0,1076832060,matinhos
Nazaré,Nazare,-13.035,-39.0139,Brazil,BR,BRA,Bahia,,29406.0,1076623776,nazare
Capim Grosso,Capim Grosso,-11.3808,-40.0128,Brazil,BR,BRA,Bahia,,29346.0,1076073401,capim grosso
Prainha,Prainha,-1.8,-53.48,Brazil,BR,BRA,Pará,,29349.0,1076355822,prainha
Floresta,Floresta,-8.6008,-38.5678,Brazil,BR,BRA,Pernambuco,,29285.0,1076279449,floresta
Tabuleiro do Norte,Tabuleiro Do Norte,-5.2481,-38.13,Brazil,BR,BRA,Ceará,,29204.0,1076771180,tabuleiro do norte
Prado,Prado,-17.3408,-39.2208,Brazil,BR,BRA,Bahia,,29218.0,1076433537,prado
Santa Quitéria do Maranhão,Santa Quiteria Do Maranhao,-3.5158,-42.5469,Brazil,BR,BRA,Maranhão,,29191.0,1076783910,santa quiteria do maranhao
Ituberá,Itubera,-13.7319,-39.1489,Brazil,BR,BRA,Bahia,,29108.0,1076882481,itubera
Braço do Norte,Braco Do Norte,-28.275,-49.1658,Brazil,BR,BRA,Santa Catarina,,29018.0,1076735238,braco do norte
Glória do Goitá,Gloria Do Goita,-7.9992,-35.2911,Brazil,BR,BRA,Pernambuco,,29019.0,1076540889,gloria do goita
Laranjal Paulista,Laranjal Paulista,-23.0118,-47.8657,Brazil,BR,BRA,São Paulo,,29047.0,1076357656,laranjal paulista
Baixo Guandu,Baixo Guandu,-19.5189,-41.0158,Brazil,BR,BRA,Espírito Santo,,29081.0,1076851088,baixo guandu
Rio Pardo de Minas,Rio Pardo De Minas,-15.61,-42.54,Brazil,BR,BRA,Minas Gerais,,29099.0,1076405479,rio pardo de minas
Mirandópolis,Mirandopolis,-21.1336,-51.1017,Brazil,BR,BRA,São Paulo,,29043.0,1076193094,mirandopolis
Itaperuçu,Itaperucu,-25.22,-49.3478,Brazil,BR,BRA,Paraná,,29070.0,1076522601,itaperucu
Bagre,Bagre,-1.9,-50.1639,Brazil,BR,BRA,Pará,,29065.0,1076537991,bagre
